{"version": 0.6, "generator": "Overpass API 0.7.61.5 4133829e", "osm3s": {"timestamp_osm_base": "2023-11-26T23:36:14Z", "copyright": "The data included in this document is from www.openstreetmap.org. The data is made available under ODbL."}, "elements": [{"type": "node", "id": 290955154, "lat": 52.340489, "lon": 4.7900155, "tags": {"bench": "yes", "bin": "yes", "bus": "yes", "highway": "bus_stop", "name": "Badhoevelaan", "public_transport": "platform", "shelter": "yes", "tactile_paving": "yes", "wheelchair": "yes", "zone": "5723"}}, {"type": "node", "id": 311831619, "lat": 52.420431, "lon": 4.8810259, "tags": {"bus": "yes", "highway": "bus_stop", "name": "Oostzanerdijk", "public_transport": "platform", "ref:IFOPT": "NL:Q:30001213", "zone": "5711"}}, {"type": "node", "id": 311831882, "lat": 52.420219, "lon": 4.8814458, "tags": {"bus": "yes", "highway": "bus_stop", "name": "Oostzanerdijk", "public_transport": "platform", "zone": "5711"}}, {"type": "node", "id": 318147070, "lat": 52.4166172, "lon": 4.8828852, "tags": {"bus": "yes", "highway": "bus_stop", "name": "Kometensingel", "public_transport": "platform", "ref:IFOPT": "NL:Q:30001211", "zone": "5711"}}, {"type": "node", "id": 318147071, "lat": 52.4165291, "lon": 4.8825447, "tags": {"bus": "yes", "highway": "bus_stop", "name": "Kometensingel", "public_transport": "platform", "ref:IFOPT": "NL:Q:30001210", "shelter": "yes", "zone": "5711"}}, {"type": "node", "id": 339287455, "lat": 52.4161839, "lon": 4.8920308, "tags": {"highway": "bus_stop", "name": "Standerdmolen", "public_transport": "platform", "zone": "5711"}}, {"type": "node", "id": 339287456, "lat": 52.4162683, "lon": 4.893282, "tags": {"highway": "bus_stop", "name": "Standerdmolen", "public_transport": "platform", "zone": "5711"}}, {"type": "node", "id": 339287457, "lat": 52.4147289, "lon": 4.8811392, "tags": {"bus": "yes", "highway": "bus_stop", "name": "Meteorenweg", "public_transport": "platform", "ref:IFOPT": "NL:Q:30001209", "zone": "5711"}}, {"type": "node", "id": 344743083, "lat": 52.4299931, "lon": 4.8641859, "tags": {"bench": "yes", "bin": "yes", "bus": "yes", "cxx:code": "57123530", "cxx:id": "32185", "highway": "bus_stop", "name": "Westkolkdijk", "public_transport": "platform", "shelter": "yes", "zone": "5712"}}, {"type": "node", "id": 344794612, "lat": 52.4225328, "lon": 4.9527727, "tags": {"bench": "yes", "bin": "yes", "highway": "bus_stop", "name": "Splitsing", "public_transport": "platform", "ref:IFOPT": "NL:Q:37200540", "shelter": "yes", "tactile_paving": "yes", "zone": "3720"}}, {"type": "node", "id": 344795052, "lat": 52.4225883, "lon": 4.9523131, "tags": {"bench": "yes", "bin": "yes", "highway": "bus_stop", "name": "Splitsing", "public_transport": "platform", "ref:IFOPT": "NL:Q:37200550", "shelter": "yes", "tactile_paving": "yes", "zone": "3720"}}, {"type": "node", "id": 418753015, "lat": 52.4219657, "lon": 4.9547115, "tags": {"highway": "bus_stop", "name": "Splitsing", "public_transport": "platform", "ref:IFOPT": "NL:Q:37201020", "zone": "3720"}}, {"type": "node", "id": 429312211, "lat": 52.3054856, "lon": 4.9464075, "tags": {"bus": "yes", "highway": "bus_stop", "name": "Karspeldreef", "public_transport": "platform", "ref:IFOPT": "NL:Q:57253550", "shelter": "yes", "zone": "5725"}}, {"type": "node", "id": 429312212, "lat": 52.3078114, "lon": 4.9442557, "tags": {"bus": "yes", "highway": "bus_stop", "name": "Gebouw Atlas", "public_transport": "platform", "ref:IFOPT": "NL:Q:57253030", "zone": "5725"}}, {"type": "node", "id": 429312213, "lat": 52.3044188, "lon": 4.9469146, "tags": {"bus": "yes", "highway": "bus_stop", "name": "Karspeldreef", "public_transport": "platform", "ref:IFOPT": "NL:Q:57253540", "zone": "5725"}}, {"type": "node", "id": 434700013, "lat": 52.3775878, "lon": 4.8463385, "tags": {"bus": "yes", "highway": "bus_stop", "name": "Bos en Lommerplein", "public_transport": "platform", "wheelchair": "limited"}}, {"type": "node", "id": 440356549, "lat": 52.3127497, "lon": 4.9499148, "tags": {"bus": "yes", "cxx:code": "57250610;57252650;57252651", "cxx:id": "33288;33357;54177", "highway": "bus_stop", "name": "Foppingadreef", "public_transport": "platform", "source": "CXX", "zone": "5725"}}, {"type": "node", "id": 447840083, "lat": 52.36196, "lon": 4.881148, "tags": {"bench": "yes", "bin": "yes", "bus": "yes", "highway": "bus_stop", "lit": "yes", "name": "Leidseplein", "public_transport": "platform", "shelter": "yes", "tactile_paving": "yes", "wheelchair": "yes", "zone": "5700"}}, {"type": "node", "id": 448123686, "lat": 52.3415953, "lon": 4.7932054, "tags": {"bench": "yes", "bin": "yes", "bus": "yes", "covered": "yes", "cxx:code": "57232260", "cxx:id": "32938", "highway": "bus_stop", "name": "Langsom", "public_transport": "platform", "shelter": "yes", "source": "CXX", "zone": "5723"}}, {"type": "node", "id": 448123793, "lat": 52.3418043, "lon": 4.7932052, "tags": {"bus": "yes", "cxx:code": "57232460", "cxx:id": "32957", "highway": "bus_stop", "name": "Langsom", "public_transport": "platform", "source": "CXX", "zone": "5723"}}, {"type": "node", "id": 461811619, "lat": 52.3297133, "lon": 4.9399293, "tags": {"bench": "yes", "bus": "yes", "highway": "bus_stop", "name": "Korenbloemstraat", "public_transport": "platform", "shelter": "yes", "wheelchair": "yes", "zone": "5715"}}, {"type": "node", "id": 461811620, "lat": 52.3300325, "lon": 4.940151, "tags": {"bench": "yes", "bus": "yes", "highway": "bus_stop", "name": "Korenbloemstraat", "public_transport": "platform", "shelter": "yes", "wheelchair": "yes", "zone": "5715"}}, {"type": "node", "id": 461811621, "lat": 52.3325137, "lon": 4.9409875, "tags": {"bus": "yes", "highway": "bus_stop", "name": "Plataanstraat", "public_transport": "platform", "shelter": "yes", "wheelchair": "yes", "zone": "5715"}}, {"type": "node", "id": 461811622, "lat": 52.3323712, "lon": 4.9410663, "tags": {"bus": "yes", "highway": "bus_stop", "name": "Plataanstraat", "public_transport": "platform", "shelter": "yes", "wheelchair": "yes", "zone": "5715"}}, {"type": "node", "id": 469130494, "lat": 52.4294206, "lon": 4.8566407, "tags": {"bus": "yes", "cxx:code": "37223600;37223607", "cxx:id": "53080;8376", "highway": "bus_stop", "name": "De Vlinder", "public_transport": "stop_position", "source": "CXX", "zone": "3722"}}, {"type": "node", "id": 469130946, "lat": 52.4201262, "lon": 4.8930079, "tags": {"highway": "bus_stop", "name": "Zuideinde", "public_transport": "platform", "zone": "5711"}}, {"type": "node", "id": 469130947, "lat": 52.4200771, "lon": 4.892863, "tags": {"highway": "bus_stop", "name": "Zuideinde", "public_transport": "platform", "zone": "5711"}}, {"type": "node", "id": 469130948, "lat": 52.4211175, "lon": 4.8918905, "tags": {"bus": "yes", "cxx:code": "57112990", "cxx:id": "32058", "highway": "bus_stop", "name": "Zuideinde/Molenaarsweg", "public_transport": "platform", "source": "CXX", "zone": "5711"}}, {"type": "node", "id": 469130949, "lat": 52.4219883, "lon": 4.8911774, "tags": {"bench": "yes", "bus": "yes", "covered": "yes", "cxx:code": "57113340", "cxx:id": "32077", "highway": "bus_stop", "name": "Zuideinde/Molenaarsweg", "public_transport": "platform", "shelter": "yes", "source": "CXX", "zone": "5711"}}, {"type": "node", "id": 469130950, "lat": 52.4245606, "lon": 4.8886412, "tags": {"bus": "yes", "cxx:code": "57113010", "cxx:id": "32060", "highway": "bus_stop", "name": "Zuideinde/Viaduct", "public_transport": "platform", "source": "CXX", "zone": "5711"}}, {"type": "node", "id": 469130951, "lat": 52.4246113, "lon": 4.888683, "tags": {"bus": "yes", "cxx:code": "37233320", "cxx:id": "8487", "highway": "bus_stop", "name": "Zuideinde/Viaduct", "public_transport": "platform", "source": "CXX", "zone": "3723;5711"}}, {"type": "node", "id": 469130958, "lat": 52.4284774, "lon": 4.885236, "tags": {"bus": "yes", "cxx:code": "37233300", "cxx:id": "8486", "highway": "bus_stop", "name": "Bombraakpad", "public_transport": "platform", "source": "CXX", "zone": "3723;5711"}}, {"type": "node", "id": 469130972, "lat": 52.4281809, "lon": 4.885254, "tags": {"bus": "yes", "cxx:code": "37233030", "cxx:id": "8473", "highway": "bus_stop", "name": "Bombraakpad", "public_transport": "platform", "source": "CXX", "zone": "3723;5711"}}, {"type": "node", "id": 473695216, "lat": 52.354496, "lon": 4.9507867, "tags": {"alt_name": "Science Park Amsterdam", "bus": "yes", "highway": "bus_stop", "name": "Science Park", "public_transport": "platform", "ref:IFOPT": "NL:Q:30000554", "shelter": "yes", "zone": "5715"}}, {"type": "node", "id": 473695226, "lat": 52.3543431, "lon": 4.9582997, "tags": {"bench": "yes", "bin": "yes", "bus": "yes", "highway": "bus_stop", "name": "Science Park Terra", "public_transport": "platform", "ref:IFOPT": "NL:Q:30000506", "shelter": "yes", "zone": "5715"}}, {"type": "node", "id": 473695240, "lat": 52.3559759, "lon": 4.9541376, "tags": {"bus": "yes", "highway": "bus_stop", "name": "Science Park Aqua", "public_transport": "platform", "ref:IFOPT": "NL:Q:30000494", "shelter": "yes", "zone": "5715"}}, {"type": "node", "id": 473695259, "lat": 52.3552122, "lon": 4.9526721, "tags": {"alt_name": "University College", "bench": "yes", "bus": "yes", "highway": "bus_stop", "name": "Science Park Aer", "public_transport": "platform", "ref:IFOPT": "NL:Q:30000492", "shelter": "yes", "zone": "5715"}}, {"type": "node", "id": 473695260, "lat": 52.3546283, "lon": 4.9507583, "tags": {"alt_name": "Science Park Amsterdam", "bus": "yes", "highway": "bus_stop", "name": "Science Park", "public_transport": "platform", "ref:IFOPT": "NL:Q:30000555", "shelter": "yes", "zone": "5715"}}, {"type": "node", "id": 473695262, "lat": 52.3547493, "lon": 4.952165, "tags": {"alt_name": "University College", "bus": "yes", "highway": "bus_stop", "name": "Science Park Aer", "public_transport": "platform", "ref:IFOPT": "NL:Q:30000491", "shelter": "yes", "zone": "5715"}}, {"type": "node", "id": 473695263, "lat": 52.3577153, "lon": 4.9442634, "tags": {"alt_name": "Carolina MacGillavrylaan", "bench": "yes", "bus": "yes", "highway": "bus_stop", "name": "C. Mac Gillavrylaan", "public_transport": "platform", "ref:IFOPT": "NL:Q:30000557", "shelter": "yes", "tactile_paving": "yes", "zone": "5715"}}, {"type": "node", "id": 473695265, "lat": 52.357613, "lon": 4.9446655, "tags": {"alt_name": "Carolina MacGillavrylaan", "bench": "no", "bus": "yes", "highway": "bus_stop", "name": "C. Mac Gillavrylaan", "public_transport": "platform", "ref:IFOPT": "NL:Q:30000556", "shelter": "yes", "tactile_paving": "yes", "zone": "5715"}}, {"type": "node", "id": 473695266, "lat": 52.3589967, "lon": 4.9408343, "tags": {"bench": "yes", "bin": "yes", "bus": "yes", "highway": "bus_stop", "lit": "yes", "name": "Valentijnkade", "public_transport": "platform", "ref:IFOPT": "NL:Q:30008132", "shelter": "yes", "tactile_paving": "yes", "zone": "5715"}}, {"type": "node", "id": 473695272, "lat": 52.3613445, "lon": 4.9328607, "tags": {"bench": "yes", "bin": "yes", "bus": "yes", "highway": "bus_stop", "lit": "yes", "name": "Muiderpoortstation", "public_transport": "platform", "ref:IFOPT": "NL:Q:30000001", "shelter": "yes", "tactile_paving": "yes", "wheelchair": "yes", "zone": "5715"}}, {"type": "node", "id": 473695275, "lat": 52.3523594, "lon": 4.9477449, "tags": {"bench": "yes", "bin": "yes", "bus": "yes", "highway": "bus_stop", "name": "Station Science Park", "public_transport": "platform", "ref:IFOPT": "NL:Q:30000529", "shelter": "yes", "zone": "5715"}}, {"type": "node", "id": 473695277, "lat": 52.3487119, "lon": 4.9414936, "tags": {"bench": "yes", "bin": "yes", "bus": "yes", "highway": "bus_stop", "lit": "yes", "name": "Linnaeusparkweg", "public_transport": "platform", "shelter": "yes", "tactile_paving": "no", "zone": "5715"}}, {"type": "node", "id": 473695279, "lat": 52.3455153, "lon": 4.9365555, "tags": {"bench": "yes", "bin": "yes", "bus": "yes", "highway": "bus_stop", "lit": "yes", "name": "Pekelharingstraat", "old_name": "Maxwellstraat", "public_transport": "platform", "shelter": "yes", "tactile_paving": "yes", "zone": "5715"}}, {"type": "node", "id": 473695280, "lat": 52.3458716, "lon": 4.9318949, "tags": {"bench": "yes", "bin": "yes", "bus": "yes", "highway": "bus_stop", "lit": "yes", "name": "Lorentzlaan", "public_transport": "platform", "shelter": "yes", "tactile_paving": "no", "zone": "5715"}}, {"type": "node", "id": 473695282, "lat": 52.3463777, "lon": 4.9314393, "tags": {"bus": "yes", "highway": "bus_stop", "name": "Lorentzlaan", "public_transport": "platform", "shelter": "yes", "zone": "5715"}}, {"type": "node", "id": 473695284, "lat": 52.3472783, "lon": 4.928604, "tags": {"bench": "yes", "bin": "yes", "bus": "yes", "highway": "bus_stop", "lit": "yes", "name": "Maxwellstraat", "public_transport": "platform", "shelter": "yes", "tactile_paving": "yes", "zone": "5715"}}, {"type": "node", "id": 473695286, "lat": 52.3460025, "lon": 4.9243303, "tags": {"bench": "yes", "bin": "yes", "bus": "yes", "check_date:shelter": "2022-11-27", "highway": "bus_stop", "name": "Fizeaustraat", "public_transport": "platform", "shelter": "yes", "zone": "5715"}}, {"type": "node", "id": 473695287, "lat": 52.3458631, "lon": 4.9246407, "tags": {"bench": "yes", "bus": "yes", "highway": "bus_stop", "name": "Fizeaustraat", "public_transport": "platform", "shelter": "yes", "zone": "5715"}}, {"type": "node", "id": 504592946, "lat": 52.3656126, "lon": 4.8042516, "tags": {"bus": "yes", "highway": "bus_stop", "name": "Ookmeerweg", "public_transport": "platform", "shelter": "yes", "zone": "5713"}}, {"type": "node", "id": 504592972, "lat": 52.3659913, "lon": 4.8042144, "tags": {"bus": "yes", "highway": "bus_stop", "name": "Ookmeerweg", "public_transport": "platform", "shelter": "yes", "zone": "5713"}}, {"type": "node", "id": 594942182, "lat": 52.3702166, "lon": 4.8514928, "tags": {"highway": "bus_stop", "name": "Mercatorplein", "public_transport": "platform", "zone": "5713"}}, {"type": "node", "id": 594942197, "lat": 52.3703961, "lon": 4.8500384, "tags": {"bench": "yes", "bin": "yes", "bus": "yes", "highway": "bus_stop", "name": "Mercatorplein", "public_transport": "platform", "shelter": "yes", "tactile_paving": "no", "zone": "5713"}}, {"type": "node", "id": 594942198, "lat": 52.3701648, "lon": 4.8507854, "tags": {"bench": "no", "bin": "no", "highway": "bus_stop", "lit": "yes", "name": "Mercatorplein", "public_transport": "platform", "shelter": "yes", "tactile_paving": "no", "zone": "5713"}}, {"type": "node", "id": 599615790, "lat": 52.3245559, "lon": 4.8696069, "tags": {"bus": "yes", "cxx:code": "57142100", "cxx:id": "32543", "highway": "bus_stop", "name": "Van Boshuizenstraat", "public_transport": "platform", "source": "CXX", "zone": "5714"}}, {"type": "node", "id": 603155577, "lat": 52.3410802, "lon": 4.8279702, "tags": {"bench": "yes", "bus": "yes", "highway": "bus_stop", "name": "IBM", "public_transport": "platform", "shelter": "yes", "zone": "5723"}}, {"type": "node", "id": 616589094, "lat": 52.2992109, "lon": 4.9679196, "tags": {"bench": "yes", "check_date:shelter": "2021-04-06", "highway": "bus_stop", "name": "Meernhof", "public_transport": "platform", "shelter": "yes", "zone": "5725"}}, {"type": "node", "id": 616589095, "lat": 52.2997204, "lon": 4.9670529, "tags": {"bench": "yes", "check_date:shelter": "2021-04-06", "highway": "bus_stop", "name": "Meernhof", "public_transport": "platform", "shelter": "yes", "zone": "5725"}}, {"type": "node", "id": 616589097, "lat": 52.298071, "lon": 4.9700319, "tags": {"bench": "yes", "bus": "yes", "highway": "bus_stop", "name": "Rhenenhof", "public_transport": "platform", "shelter": "yes", "zone": "5725"}}, {"type": "node", "id": 616589098, "lat": 52.2984185, "lon": 4.9708602, "tags": {"bench": "yes", "bus": "yes", "highway": "bus_stop", "name": "Rhenenhof", "public_transport": "platform", "shelter": "yes", "zone": "5725"}}, {"type": "node", "id": 617062152, "lat": 52.340706, "lon": 4.827531, "tags": {"bench": "yes", "bus": "yes", "check_date:shelter": "2023-04-25", "highway": "bus_stop", "name": "IBM", "public_transport": "platform", "shelter": "yes", "zone": "5723"}}, {"type": "node", "id": 650962281, "lat": 52.2936787, "lon": 4.9525964, "tags": {"bus": "yes", "highway": "bus_stop", "name": "Meibergdreef", "public_transport": "platform", "ref:IFOPT": "NL:Q:57252490", "shelter": "yes", "zone": "5725"}}, {"type": "node", "id": 650962288, "lat": 52.2870185, "lon": 4.9622801, "tags": {"bus": "yes", "highway": "bus_stop", "name": "Weltevreden", "public_transport": "platform", "ref:IFOPT": "NL:Q:57252540", "zone": "5725"}}, {"type": "node", "id": 650962293, "lat": 52.2867559, "lon": 4.9622703, "tags": {"bus": "yes", "highway": "bus_stop", "name": "Weltevreden", "public_transport": "platform", "ref:IFOPT": "NL:Q:57352140", "zone": "5725"}}, {"type": "node", "id": 650962296, "lat": 52.2913613, "lon": 4.956003, "tags": {"bus": "yes", "highway": "bus_stop", "name": "AZUA", "public_transport": "platform", "ref:IFOPT": "NL:Q:57252510", "zone": "5725"}}, {"type": "node", "id": 650962298, "lat": 52.2916383, "lon": 4.9550854, "tags": {"bus": "yes", "highway": "bus_stop", "name": "AZUA", "public_transport": "platform", "ref:IFOPT": "NL:Q:57252520", "zone": "5725"}}, {"type": "node", "id": 650962386, "lat": 52.2807688, "lon": 4.9662959, "tags": {"bench": "no", "bin": "no", "bus": "yes", "highway": "bus_stop", "lit": "yes", "name": "Abcoudermeer", "public_transport": "platform", "ref:IFOPT": "NL:Q:57352120", "shelter": "no", "tactile_paving": "no", "zone": "5735"}}, {"type": "node", "id": 650962394, "lat": 52.2814407, "lon": 4.9660251, "tags": {"bench": "no", "bus": "yes", "highway": "bus_stop", "name": "Abcoudermeer", "public_transport": "platform", "ref:IFOPT": "NL:Q:57352130", "shelter": "no", "zone": "5735"}}, {"type": "node", "id": 650962440, "lat": 52.3029191, "lon": 4.9469433, "tags": {"bench": "yes", "bus": "yes", "highway": "bus_stop", "name": "Laarderhoogtweg", "public_transport": "platform", "ref:IFOPT": "NL:Q:57250310", "shelter": "yes", "zone": "5725"}}, {"type": "node", "id": 650962443, "lat": 52.3031919, "lon": 4.9481971, "tags": {"bench": "yes", "bus": "yes", "highway": "bus_stop", "name": "Laarderhoogtweg", "public_transport": "platform", "ref:IFOPT": "NL:Q:57250320", "shelter": "yes", "zone": "5725"}}, {"type": "node", "id": 650962448, "lat": 52.2967764, "lon": 4.9559192, "tags": {"bus": "yes", "highway": "bus_stop", "name": "Paasheuvelweg", "public_transport": "platform", "ref:IFOPT": "NL:Q:57253490", "shelter": "yes", "zone": "5725"}}, {"type": "node", "id": 650962450, "lat": 52.2962483, "lon": 4.9550176, "tags": {"bus": "yes", "highway": "bus_stop", "name": "Paasheuvelweg", "public_transport": "platform", "ref:IFOPT": "NL:Q:57253480", "zone": "5725"}}, {"type": "node", "id": 650962453, "lat": 52.3071207, "lon": 4.9444589, "tags": {"bus": "yes", "highway": "bus_stop", "name": "Gebouw Atlas", "public_transport": "platform", "ref:IFOPT": "NL:Q:57253040", "zone": "5725"}}, {"type": "node", "id": 695213797, "lat": 52.3143431, "lon": 4.949038, "tags": {"bus": "yes", "cxx:code": "57252800", "cxx:id": "33372", "highway": "bus_stop", "name": "Bijlmerplein", "public_transport": "platform", "zone": "5725"}}, {"type": "node", "id": 695213814, "lat": 52.3142756, "lon": 4.9495425, "tags": {"bench": "yes", "bin": "yes", "bus": "yes", "cxx:code": "57252790;57252791", "cxx:id": "33371;54180", "highway": "bus_stop", "name": "Bijlmerplein", "public_transport": "platform", "shelter": "yes", "tactile_paving": "yes", "zone": "5725"}}, {"type": "node", "id": 695213819, "lat": 52.3432154, "lon": 4.9475131, "tags": {"bus": "yes", "cxx:code": "57152200", "cxx:id": "32712", "highway": "bus_stop", "name": "Brinkstraat", "public_transport": "platform", "source": "CXX", "zone": "5715"}}, {"type": "node", "id": 695213831, "lat": 52.3276691, "lon": 4.9718582, "tags": {"bus": "yes", "cxx:code": "57251940", "cxx:id": "33296", "highway": "bus_stop", "name": "Provincialeweg", "public_transport": "platform", "zone": "5725"}}, {"type": "node", "id": 695213874, "lat": 52.3219772, "lon": 4.9512683, "tags": {"cxx:code": "57250410", "cxx:id": "33274", "highway": "bus_stop", "name": "Dennenrode", "public_transport": "platform", "wheelchair": "yes", "zone": "5725"}}, {"type": "node", "id": 695213896, "lat": 52.3476259, "lon": 4.9404764, "tags": {"bus": "yes", "highway": "bus_stop", "name": "Kruislaan", "public_transport": "platform", "zone": "5715"}}, {"type": "node", "id": 695213919, "lat": 52.350194, "lon": 4.9338365, "tags": {"bench": "yes", "bin": "yes", "bus": "yes", "highway": "bus_stop", "lit": "yes", "name": "Middenweg", "public_transport": "platform", "shelter": "yes", "tactile_paving": "yes", "zone": "5715"}}, {"type": "node", "id": 695213937, "lat": 52.3279703, "lon": 4.9727334, "tags": {"bus": "yes", "cxx:code": "57251950;57251951", "cxx:id": "33297;54174", "highway": "bus_stop", "name": "Provincialeweg", "public_transport": "platform", "shelter": "yes", "zone": "5725"}}, {"type": "node", "id": 695213942, "lat": 52.3326478, "lon": 5.0250909, "tags": {"bus": "yes", "cxx:code": "58200020", "cxx:id": "33925", "highway": "bus_stop", "name": "Maxisweg", "public_transport": "platform", "ref:IFOPT": "NL:Q:58200020", "source": "CXX", "zone": "5820"}}, {"type": "node", "id": 695213969, "lat": 52.3219191, "lon": 4.9518619, "tags": {"cxx:code": "57250420;57250421", "cxx:id": "33275;54171", "highway": "bus_stop", "name": "Dennenrode", "public_transport": "platform", "wheelchair": "yes", "zone": "5725"}}, {"type": "node", "id": 695213982, "lat": 52.33366, "lon": 4.9781957, "tags": {"bus": "yes", "cxx:code": "57152690", "cxx:id": "32763", "highway": "bus_stop", "name": "Vinkenbrug", "public_transport": "platform", "ref:IFOPT": "NL:Q:30000999", "shelter": "yes", "zone": "5715"}}, {"type": "node", "id": 695213995, "lat": 52.3337164, "lon": 4.9788636, "tags": {"bench": "yes", "bin": "yes", "bus": "yes", "cxx:code": "57152660", "cxx:id": "32760", "highway": "bus_stop", "name": "Vinkenbrug", "public_transport": "platform", "ref:IFOPT": "NL:Q:30000998", "shelter": "yes", "tactile_paving": "yes", "zone": "5715"}}, {"type": "node", "id": 695214003, "lat": 52.3504166, "lon": 4.9345556, "tags": {"bench": "yes", "bin": "yes", "bus": "yes", "cxx:code": "57152150", "cxx:id": "32707", "highway": "bus_stop", "lit": "yes", "name": "Middenweg", "public_transport": "platform", "shelter": "yes", "tactile_paving": "yes", "zone": "5715"}}, {"type": "node", "id": 695214022, "lat": 52.3325095, "lon": 5.0254456, "tags": {"bus": "yes", "highway": "bus_stop", "name": "Maxisweg", "public_transport": "platform", "ref:IFOPT": "NL:Q:58200030"}}, {"type": "node", "id": 697976774, "lat": 52.3271831, "lon": 4.967083, "tags": {"bus": "yes", "cxx:code": "57251971", "cxx:id": "33299;54175", "highway": "bus_stop", "name": "Eekholt", "public_transport": "platform", "zone": "5725"}}, {"type": "node", "id": 697976940, "lat": 52.3268792, "lon": 4.9655563, "tags": {"bus": "yes", "cxx:code": "57251960", "cxx:id": "33298", "highway": "bus_stop", "name": "Eekholt", "public_transport": "platform", "zone": "5725"}}, {"type": "node", "id": 697977044, "lat": 52.3130617, "lon": 4.9493119, "tags": {"bus": "yes", "cxx:code": "57250600;57252660", "cxx:id": "33287;33358", "highway": "bus_stop", "name": "Foppingadreef", "public_transport": "platform", "source": "CXX", "zone": "5725"}}, {"type": "node", "id": 700180447, "lat": 52.4242615, "lon": 4.8258213, "tags": {"bus": "yes", "cxx:code": "37222250", "cxx:id": "53051", "highway": "bus_stop", "name": "Gerrit Kiststraat", "public_transport": "platform", "source": "CXX", "zone": "3722"}}, {"type": "node", "id": 700180462, "lat": 52.4284678, "lon": 4.8027524, "tags": {"bus": "yes", "cxx:code": "37225050", "cxx:id": "8435", "highway": "bus_stop", "name": "Ducaatstraat", "public_transport": "platform", "source": "CXX", "zone": "3722"}}, {"type": "node", "id": 700180470, "lat": 52.4292736, "lon": 4.7898415, "tags": {"bus": "yes", "cxx:code": "37222030", "cxx:id": "8331", "highway": "bus_stop", "name": "Willem Hooftkade", "public_transport": "platform", "source": "CXX", "zone": "3722"}}, {"type": "node", "id": 700180495, "lat": 52.4292628, "lon": 4.8316338, "tags": {"bench": "no", "bus": "yes", "cxx:code": "37222170", "cxx:id": "52673", "highway": "bus_stop", "name": "Zweedsestraat", "public_transport": "platform", "shelter": "no", "source": "CXX", "zone": "3722"}}, {"type": "node", "id": 700180502, "lat": 52.4217266, "lon": 4.824966, "tags": {"bus": "yes", "cxx:code": "37221710", "cxx:id": "52672", "highway": "bus_stop", "name": "Zaanderhorn", "public_transport": "platform", "source": "CXX", "zone": "3722"}}, {"type": "node", "id": 700180506, "lat": 52.4306901, "lon": 4.7817407, "tags": {"bus": "yes", "cxx:code": "37220420", "cxx:id": "8174", "highway": "bus_stop", "name": "Overtoom/Zuideinde", "public_transport": "platform", "source": "CXX", "zone": "3722"}}, {"type": "node", "id": 700180522, "lat": 52.4306798, "lon": 4.8144562, "tags": {"bus": "yes", "cxx:code": "37220150", "cxx:id": "8147", "highway": "bus_stop", "name": "Albert Heijnweg", "public_transport": "platform", "source": "CXX", "zone": "3722"}}, {"type": "node", "id": 700180523, "lat": 52.4252915, "lon": 4.8205101, "tags": {"bus": "yes", "cxx:code": "37222220", "cxx:id": "53048", "highway": "bus_stop", "name": "Symon Spiersweg", "public_transport": "platform", "source": "CXX", "zone": "3722"}}, {"type": "node", "id": 700180545, "lat": 52.4286971, "lon": 4.8018671, "tags": {"bus": "yes", "cxx:code": "37225000", "cxx:id": "8430", "highway": "bus_stop", "name": "Ducaatstraat", "public_transport": "platform", "source": "CXX", "zone": "3722"}}, {"type": "node", "id": 700180576, "lat": 52.4215809, "lon": 4.8262355, "tags": {"bus": "yes", "highway": "bus_stop", "name": "Hemkade/Pont", "public_transport": "platform", "zone": "3722"}}, {"type": "node", "id": 700180582, "lat": 52.4304913, "lon": 4.8423495, "tags": {"bus": "yes", "cxx:code": "37223560", "cxx:id": "8372", "highway": "bus_stop", "name": "Vijfhoek", "public_transport": "platform", "source": "CXX", "zone": "3722"}}, {"type": "node", "id": 700180585, "lat": 52.4294001, "lon": 4.8315529, "tags": {"bench": "no", "bus": "yes", "cxx:code": "37220070", "cxx:id": "8130", "highway": "bus_stop", "name": "Zweedsestraat", "public_transport": "platform", "shelter": "no", "source": "CXX", "zone": "3722"}}, {"type": "node", "id": 700180611, "lat": 52.4251721, "lon": 4.820915, "tags": {"bus": "yes", "cxx:code": "37222230", "cxx:id": "53049", "highway": "bus_stop", "name": "Symon Spiersweg", "public_transport": "platform", "source": "CXX", "zone": "3722"}}, {"type": "node", "id": 700180628, "lat": 52.4292633, "lon": 4.807344, "tags": {"bus": "yes", "cxx:code": "37225030", "cxx:id": "8433", "highway": "bus_stop", "name": "Grote Tocht", "public_transport": "platform", "source": "CXX", "zone": "3722"}}, {"type": "node", "id": 700180657, "lat": 52.427719, "lon": 4.843603, "tags": {"bus": "yes", "cxx:code": "37223580", "cxx:id": "8374", "highway": "bus_stop", "name": "Uitvaartcentrum", "public_transport": "platform", "source": "CXX", "zone": "3722"}}, {"type": "node", "id": 700180658, "lat": 52.4214268, "lon": 4.8263166, "tags": {"bus": "yes", "highway": "bus_stop", "name": "Hemkade/Pont", "public_transport": "platform", "shelter": "yes", "zone": "3722"}}, {"type": "node", "id": 700180671, "lat": 52.430393, "lon": 4.8292871, "tags": {"bench": "no", "bus": "yes", "cxx:code": "37220090", "cxx:id": "8132", "highway": "bus_stop", "lit": "yes", "name": "Rigastraat", "public_transport": "platform", "shelter": "no", "source": "CXX", "zone": "3722"}}, {"type": "node", "id": 700180684, "lat": 52.4280945, "lon": 4.7981553, "tags": {"bus": "yes", "cxx:code": "37222060", "cxx:id": "8334", "highway": "bus_stop", "name": "Schellingweg", "public_transport": "platform", "source": "CXX", "zone": "3722"}}, {"type": "node", "id": 700180706, "lat": 52.4302283, "lon": 4.8117277, "tags": {"bus": "yes", "cxx:code": "37225010", "cxx:id": "8431", "highway": "bus_stop", "name": "Ronde Tocht", "public_transport": "platform", "source": "CXX", "zone": "3722"}}, {"type": "node", "id": 700180719, "lat": 52.4281409, "lon": 4.8431984, "tags": {"bus": "yes", "cxx:code": "37223570", "cxx:id": "8373", "highway": "bus_stop", "name": "Uitvaartcentrum", "public_transport": "platform", "source": "CXX", "zone": "3722"}}, {"type": "node", "id": 700180734, "lat": 52.4243002, "lon": 4.8257184, "tags": {"bus": "yes", "cxx:code": "37222240", "cxx:id": "53050", "highway": "bus_stop", "name": "Gerrit Kiststraat", "public_transport": "platform", "source": "CXX", "zone": "3722"}}, {"type": "node", "id": 700180746, "lat": 52.4302059, "lon": 4.8295929, "tags": {"bus": "yes", "cxx:code": "37222190", "cxx:id": "52674", "highway": "bus_stop", "name": "Rigastraat", "public_transport": "platform", "source": "CXX", "zone": "3722"}}, {"type": "node", "id": 700180761, "lat": 52.428436, "lon": 4.796357, "tags": {"bus": "yes", "cxx:code": "37222050", "cxx:id": "8333", "highway": "bus_stop", "name": "Schellingweg", "public_transport": "platform", "source": "CXX", "zone": "3722"}}, {"type": "node", "id": 700180767, "lat": 52.4290952, "lon": 4.7898395, "tags": {"bus": "yes", "cxx:code": "37222160", "cxx:id": "8339", "highway": "bus_stop", "name": "Willem Hooftkade", "public_transport": "platform", "source": "CXX", "zone": "3722"}}, {"type": "node", "id": 700180781, "lat": 52.4291725, "lon": 4.8090066, "tags": {"bus": "yes", "cxx:code": "37225040", "cxx:id": "8434", "highway": "bus_stop", "name": "Grote Tocht", "public_transport": "platform", "source": "CXX", "zone": "3722"}}, {"type": "node", "id": 700180795, "lat": 52.4263553, "lon": 4.8345078, "tags": {"bus": "yes", "cxx:code": "37220030", "cxx:id": "8124", "highway": "bus_stop", "name": "Delftse Rij", "public_transport": "platform", "source": "CXX", "zone": "3722"}}, {"type": "node", "id": 700180807, "lat": 52.4216088, "lon": 4.8247617, "tags": {"bus": "yes", "cxx:code": "37221590", "cxx:id": "8302", "highway": "bus_stop", "name": "Zaanderhorn", "public_transport": "platform", "source": "CXX", "zone": "3722"}}, {"type": "node", "id": 700180809, "lat": 52.4308688, "lon": 4.7815324, "tags": {"bus": "yes", "cxx:code": "37220310", "cxx:id": "8163", "highway": "bus_stop", "name": "Overtoom/Zuideinde", "public_transport": "platform", "source": "CXX", "zone": "3722"}}, {"type": "node", "id": 700343149, "lat": 52.3928206, "lon": 4.9133998, "tags": {"bus": "yes", "cxx:code": "57112590", "cxx:id": "32040", "highway": "bus_stop", "name": "Mosplein", "public_transport": "platform", "ref:IFOPT": "NL:Q:30001155", "zone": "5711"}}, {"type": "node", "id": 700343152, "lat": 52.4221303, "lon": 4.8993187, "tags": {"bus": "yes", "cxx:code": "57111540", "cxx:id": "32022", "highway": "bus_stop", "name": "Pieter A van Heyningestraat", "public_transport": "platform", "ref:IFOPT": "NL:Q:30001435", "source": "CXX", "zone": "5711"}}, {"type": "node", "id": 700343162, "lat": 52.4300304, "lon": 4.8640307, "tags": {"bus": "yes", "cxx:code": "37223620", "cxx:id": "8382", "highway": "bus_stop", "name": "Westkolkdijk", "public_transport": "platform", "zone": "5712"}}, {"type": "node", "id": 700343163, "lat": 52.3985872, "lon": 4.9120806, "tags": {"bench": "yes", "bus": "yes", "cxx:code": "57112550", "cxx:id": "32038", "highway": "bus_stop", "name": "Pinksterbloemstraat", "public_transport": "platform", "shelter": "yes", "zone": "5711"}}, {"type": "node", "id": 700343172, "lat": 52.4219011, "lon": 4.896144, "tags": {"cxx:code": "57111520", "cxx:id": "32020", "highway": "bus_stop", "name": "Lange Vonder", "public_transport": "platform", "zone": "5711"}}, {"type": "node", "id": 700343173, "lat": 52.3924783, "lon": 4.8450954, "tags": {"bus": "yes", "highway": "bus_stop", "name": "Basisweg", "public_transport": "platform", "ref:IFOPT": "NL:Q:57120020", "zone": "5712"}}, {"type": "node", "id": 700343176, "lat": 52.3922153, "lon": 4.8432083, "tags": {"bus": "yes", "highway": "bus_stop", "name": "Basisweg", "public_transport": "platform", "ref:IFOPT": "NL:Q:57120010", "zone": "5712"}}, {"type": "node", "id": 700343182, "lat": 52.3739482, "lon": 4.9054983, "tags": {"bench": "yes", "bin": "yes", "bus": "yes", "highway": "bus_stop", "lit": "yes", "name": "Prins Hendrikkade", "operator": "GVB", "public_transport": "platform", "shelter": "yes", "tactile_paving": "no", "zone": "5700"}}, {"type": "node", "id": 700343184, "lat": 52.396298, "lon": 4.9139606, "tags": {"bus": "yes", "cxx:code": "57112570", "cxx:id": "32039", "highway": "bus_stop", "name": "Sneeuwbalstraat", "public_transport": "platform", "zone": "5711"}}, {"type": "node", "id": 700343193, "lat": 52.393157, "lon": 4.9139017, "tags": {"bus": "yes", "cxx:code": "57112620", "cxx:id": "32041", "highway": "bus_stop", "name": "Mosplein", "public_transport": "platform", "ref:IFOPT": "NL:Q:30001151", "source": "CXX", "zone": "5711"}}, {"type": "node", "id": 700343197, "lat": 52.3964155, "lon": 4.9141452, "tags": {"bus": "yes", "cxx:code": "57112640", "cxx:id": "32042", "highway": "bus_stop", "name": "Sneeuwbalstraat", "public_transport": "platform", "source": "CXX", "zone": "5711"}}, {"type": "node", "id": 700343198, "lat": 52.4033475, "lon": 4.8961204, "tags": {"bench": "yes", "bin": "yes", "bus": "yes", "cxx:code": "57113330", "cxx:id": "32076", "highway": "bus_stop", "lit": "yes", "name": "Klaprozenweg", "public_transport": "platform", "ref:IFOPT": "NL:Q:57110960", "shelter": "yes", "tactile_paving": "no", "zone": "5711"}}, {"type": "node", "id": 700343203, "lat": 52.4131816, "lon": 4.8798466, "tags": {"bus": "yes", "cxx:code": "57114530", "cxx:id": "32135", "highway": "bus_stop", "name": "Keerkringpark", "public_transport": "platform", "ref:IFOPT": "NL:Q:57114530", "shelter": "yes", "zone": "5711"}}, {"type": "node", "id": 700343208, "lat": 52.3987916, "lon": 4.9120999, "tags": {"bench": "yes", "bus": "yes", "cxx:code": "57112660", "cxx:id": "32043", "highway": "bus_stop", "name": "Pinksterbloemstraat", "public_transport": "platform", "shelter": "yes", "source": "CXX", "zone": "5711"}}, {"type": "node", "id": 700343216, "lat": 52.4032113, "lon": 4.8968024, "tags": {"bus": "yes", "cxx:code": "57113820", "cxx:id": "32100", "highway": "bus_stop", "name": "Klaprozenweg", "public_transport": "platform", "zone": "5711"}}, {"type": "node", "id": 700343218, "lat": 52.4218894, "lon": 4.8964543, "tags": {"cxx:code": "57111510", "cxx:id": "32019", "highway": "bus_stop", "name": "Lange Vonder", "public_transport": "platform", "zone": "5711"}}, {"type": "node", "id": 700343221, "lat": 52.4128615, "lon": 4.8797059, "tags": {"bus": "yes", "cxx:code": "57114540", "cxx:id": "32136", "highway": "bus_stop", "name": "Keerkringpark", "public_transport": "platform", "ref:IFOPT": "NL:Q:57114540", "shelter": "yes", "zone": "5711"}}, {"type": "node", "id": 701490321, "lat": 52.4296256, "lon": 4.856593, "tags": {"bus": "yes", "cxx:code": "37223602;37223605", "cxx:id": "53078;8378", "highway": "bus_stop", "name": "De Vlinder", "public_transport": "stop_position", "source": "CXX", "zone": "3722"}}, {"type": "node", "id": 702260028, "lat": 52.4256832, "lon": 4.9109505, "tags": {"bench": "yes", "bus": "yes", "covered": "yes", "highway": "bus_stop", "name": "Luyendijk", "public_transport": "platform", "shelter": "yes", "zone": "3721"}}, {"type": "node", "id": 702260237, "lat": 52.4053005, "lon": 4.9199903, "tags": {"bus": "yes", "highway": "bus_stop", "name": "Boven IJ Ziekenhuis", "public_transport": "platform", "zone": "5711"}}, {"type": "node", "id": 702260286, "lat": 52.4133277, "lon": 4.9112884, "tags": {"bus": "yes", "highway": "bus_stop", "name": "Kadoelenpad", "public_transport": "platform", "shelter": "yes", "zone": "5711"}}, {"type": "node", "id": 702260295, "lat": 52.3852901, "lon": 4.9182278, "tags": {"bench": "yes", "bus": "yes", "check_date:shelter": "2021-09-18", "highway": "bus_stop", "name": "Havikslaan", "public_transport": "platform", "shelter": "yes", "zone": "5711"}}, {"type": "node", "id": 702260320, "lat": 52.4266791, "lon": 4.9098269, "tags": {"bench": "yes", "bus": "yes", "covered": "yes", "highway": "bus_stop", "name": "Geijenbreek", "passenger_information_display": "yes", "public_transport": "platform", "shelter": "yes", "zone": "3721"}}, {"type": "node", "id": 702260323, "lat": 52.4057722, "lon": 4.9223155, "tags": {"highway": "bus_stop", "name": "Oosterlengte", "public_transport": "platform", "zone": "5711"}}, {"type": "node", "id": 702260434, "lat": 52.3442105, "lon": 4.8275037, "tags": {"bench": "yes", "bin": "yes", "bus": "yes", "cxx:code": "57134110;57232550", "cxx:id": "32442;32966", "highway": "bus_stop", "name": "Henk Sneevlietweg", "public_transport": "platform", "shelter": "yes", "source": "CXX", "zone": "5723"}}, {"type": "node", "id": 702260459, "lat": 52.426752, "lon": 4.9509532, "tags": {"highway": "bus_stop", "name": "De Dollard", "public_transport": "platform", "ref:IFOPT": "NL:Q:37200050", "zone": "3720"}}, {"type": "node", "id": 702260577, "lat": 52.4256626, "lon": 4.9057958, "tags": {"bench": "yes", "bus": "yes", "check_date:bench": "2021-10-28", "covered": "yes", "highway": "bus_stop", "name": "Burgemeester Postweg", "public_transport": "platform", "shelter": "yes", "zone": "3721"}}, {"type": "node", "id": 702260581, "lat": 52.4290002, "lon": 4.9135159, "tags": {"bench": "no", "bus": "yes", "covered": "no", "departures_board": "realtime", "highway": "bus_stop", "name": "Landsmeer Centrum", "old_name": "Van Beekstraat", "passenger_information_display": "yes", "public_transport": "platform", "shelter": "no", "wheelchair": "yes", "zone": "3721"}}, {"type": "node", "id": 702260598, "lat": 52.3551342, "lon": 4.8272646, "tags": {"bench": "yes", "bin": "yes", "bus": "yes", "highway": "bus_stop", "name": "Sierplein", "public_transport": "platform", "shelter": "yes", "wheelchair": "yes", "zone": "5713"}}, {"type": "node", "id": 702260708, "lat": 52.4061889, "lon": 4.9220004, "tags": {"bus": "yes", "highway": "bus_stop", "name": "Oosterlengte", "public_transport": "platform", "zone": "5711"}}, {"type": "node", "id": 702260732, "lat": 52.4268165, "lon": 4.9512558, "tags": {"highway": "bus_stop", "name": "De Dollard", "public_transport": "platform", "ref:IFOPT": "NL:Q:37200020", "zone": "3720"}}, {"type": "node", "id": 702260739, "lat": 52.3693684, "lon": 4.8444112, "tags": {"bus": "yes", "highway": "bus_stop", "name": "Admiraal Helfrichstraat", "public_transport": "platform", "zone": "5713"}}, {"type": "node", "id": 702260759, "lat": 52.3771934, "lon": 4.8464234, "tags": {"bench": "yes", "bus": "yes", "highway": "bus_stop", "name": "Bos en Lommerplein", "public_transport": "platform", "railway": "tram_stop", "shelter": "yes", "wheelchair": "limited", "zone": "5713"}}, {"type": "node", "id": 702260779, "lat": 52.4240898, "lon": 4.9753201, "tags": {"highway": "bus_stop", "name": "Kruisweg", "public_transport": "platform", "ref:IFOPT": "NL:Q:37201030", "zone": "3720"}}, {"type": "node", "id": 702260786, "lat": 52.3946581, "lon": 4.9284647, "tags": {"bench": "yes", "bin": "yes", "bus": "yes", "covered": "yes", "highway": "bus_stop", "name": "Rode Kruisstraat", "passenger_information_display": "yes", "public_transport": "platform", "shelter": "yes", "tactile_paving": "yes", "zone": "5711"}}, {"type": "node", "id": 702260827, "lat": 52.4258072, "lon": 4.9059144, "tags": {"bench": "yes", "bus": "yes", "covered": "no", "highway": "bus_stop", "name": "Burgemeester Postweg", "public_transport": "platform", "shelter": "no", "zone": "3721"}}, {"type": "node", "id": 702260848, "lat": 52.4057077, "lon": 4.9111696, "tags": {"bus": "yes", "highway": "bus_stop", "name": "Tjalkstraat", "public_transport": "platform", "zone": "5711"}}, {"type": "node", "id": 702260875, "lat": 52.386261, "lon": 4.9226567, "tags": {"bus": "yes", "highway": "bus_stop", "name": "Hamerstraat", "public_transport": "platform", "zone": "5711"}}, {"type": "node", "id": 702260887, "lat": 52.4058388, "lon": 4.920234, "tags": {"bus": "yes", "highway": "bus_stop", "name": "Boven IJ Ziekenhuis", "public_transport": "platform", "zone": "5711"}}, {"type": "node", "id": 702260892, "lat": 52.3874889, "lon": 4.9117219, "tags": {"bus": "yes", "highway": "bus_stop", "name": "Meidoornplein", "public_transport": "platform", "zone": "5711"}}, {"type": "node", "id": 702260906, "lat": 52.3875597, "lon": 4.9135914, "tags": {"bus": "yes", "highway": "bus_stop", "name": "Hagedoornplein", "public_transport": "platform", "zone": "5711"}}, {"type": "node", "id": 702260914, "lat": 52.3692575, "lon": 4.8444892, "tags": {"bus": "yes", "highway": "bus_stop", "name": "Admiraal Helfrichstraat", "public_transport": "platform", "zone": "5713"}}, {"type": "node", "id": 702260925, "lat": 52.389101, "lon": 4.9251275, "tags": {"bench": "yes", "bin": "yes", "bus": "yes", "highway": "bus_stop", "lit": "yes", "name": "Merelstraat", "public_transport": "platform", "shelter": "yes", "tactile_paving": "no", "zone": "5711"}}, {"type": "node", "id": 702260934, "lat": 52.394865, "lon": 4.9288408, "tags": {"bench": "yes", "bin": "yes", "bus": "yes", "covered": "yes", "highway": "bus_stop", "name": "Rode Kruisstraat", "passenger_information_display": "yes", "public_transport": "platform", "shelter": "yes", "tactile_paving": "yes", "zone": "5711"}}, {"type": "node", "id": 702260959, "lat": 52.4049759, "lon": 4.910043, "tags": {"bus": "yes", "highway": "bus_stop", "name": "Tjalkstraat", "public_transport": "platform", "zone": "5711"}}, {"type": "node", "id": 702260973, "lat": 52.4078881, "lon": 4.9138446, "tags": {"bus": "yes", "highway": "bus_stop", "name": "Statenjachtstraat", "public_transport": "platform", "zone": "5711"}}, {"type": "node", "id": 702260980, "lat": 52.3694461, "lon": 4.8383423, "tags": {"bench": "yes", "bin": "yes", "bus": "yes", "highway": "bus_stop", "lit": "yes", "name": "Jan Voermanstraat", "public_transport": "platform", "shelter": "yes", "tactile_paving": "yes", "tram": "yes", "wikidata": "Q111396111", "zone": "5713"}}, {"type": "node", "id": 702261015, "lat": 52.3874008, "lon": 4.9110766, "tags": {"bus": "yes", "highway": "bus_stop", "name": "Meidoornplein", "public_transport": "platform", "zone": "5711"}}, {"type": "node", "id": 702261017, "lat": 52.4287679, "lon": 4.9132105, "tags": {"bench": "yes", "bus": "yes", "covered": "yes", "departures_board": "realtime", "highway": "bus_stop", "name": "Landsmeer Centrum", "old_name": "Van Beekstraat", "passenger_information_display": "yes", "public_transport": "platform", "shelter": "yes", "wheelchair": "yes", "zone": "3721"}}, {"type": "node", "id": 702261037, "lat": 52.4266148, "lon": 4.9099052, "tags": {"bench": "no", "bus": "yes", "covered": "no", "highway": "bus_stop", "name": "Geijenbreek", "passenger_information_display": "yes", "public_transport": "platform", "shelter": "no", "zone": "3721"}}, {"type": "node", "id": 702261059, "lat": 52.4245167, "lon": 4.9768128, "tags": {"highway": "bus_stop", "name": "Kruisweg", "public_transport": "platform", "ref:IFOPT": "NL:Q:37201040", "zone": "3720"}}, {"type": "node", "id": 702261063, "lat": 52.343414, "lon": 4.8279348, "tags": {"bench": "yes", "bin": "yes", "bus": "yes", "cxx:code": "57132140;57134040", "cxx:id": "32405;32435", "highway": "bus_stop", "name": "Henk Sneevlietweg", "public_transport": "platform", "shelter": "yes", "zone": "5713;5723"}}, {"type": "node", "id": 702261067, "lat": 52.3888852, "lon": 4.9248606, "tags": {"bench": "yes", "bin": "yes", "bus": "yes", "highway": "bus_stop", "name": "Merelstraat", "public_transport": "platform", "shelter": "yes", "zone": "5711"}}, {"type": "node", "id": 702261070, "lat": 52.4236873, "lon": 4.909798, "tags": {"bench": "yes", "bus": "yes", "covered": "yes", "highway": "bus_stop", "name": "Zuideinde 90", "public_transport": "platform", "shelter": "yes", "zone": "3721"}}, {"type": "node", "id": 702261079, "lat": 52.4237256, "lon": 4.905971, "tags": {"bench": "no", "bin": "no", "bus": "yes", "highway": "bus_stop", "name": "Scheepsbouwersweg", "public_transport": "platform", "shelter": "no", "tactile_paving": "no", "zone": "5711"}}, {"type": "node", "id": 702261159, "lat": 52.4260287, "lon": 4.9113752, "tags": {"bench": "no", "bus": "yes", "covered": "no", "highway": "bus_stop", "name": "Luyendijk", "public_transport": "platform", "shelter": "no", "zone": "3721"}}, {"type": "node", "id": 702261199, "lat": 52.4078927, "lon": 4.9135655, "tags": {"bus": "yes", "highway": "bus_stop", "name": "Statenjachtstraat", "public_transport": "platform", "zone": "5711"}}, {"type": "node", "id": 702261221, "lat": 52.3696195, "lon": 4.8380358, "tags": {"bench": "yes", "bin": "yes", "bus": "yes", "highway": "bus_stop", "lit": "yes", "name": "Jan Voermanstraat", "public_transport": "platform", "shelter": "yes", "tactile_paving": "yes", "zone": "5713"}}, {"type": "node", "id": 702261223, "lat": 52.3850591, "lon": 4.9176193, "tags": {"bus": "yes", "highway": "bus_stop", "name": "Havikslaan", "public_transport": "platform", "shelter": "yes", "zone": "5711"}}, {"type": "node", "id": 702261239, "lat": 52.3859979, "lon": 4.9209431, "tags": {"bus": "yes", "highway": "bus_stop", "name": "Hamerstraat", "public_transport": "platform", "zone": "5711"}}, {"type": "node", "id": 702261273, "lat": 52.4039197, "lon": 4.9290966, "tags": {"bus": "yes", "highway": "bus_stop", "name": "G.J. Scheurleerweg", "public_transport": "platform", "zone": "5711"}}, {"type": "node", "id": 702261281, "lat": 52.3874599, "lon": 4.9134351, "tags": {"bus": "yes", "highway": "bus_stop", "name": "Hagedoornplein", "public_transport": "platform", "zone": "5711"}}, {"type": "node", "id": 702261328, "lat": 52.4231867, "lon": 4.9054569, "tags": {"bus": "yes", "highway": "bus_stop", "name": "Scheepsbouwersweg", "public_transport": "platform", "zone": "5711"}}, {"type": "node", "id": 721160456, "lat": 52.3771549, "lon": 4.862919, "tags": {"bench": "yes", "bin": "yes", "cxx:code": "57131540", "cxx:id": "32346", "highway": "bus_stop", "lit": "yes", "name": "De Rijpgracht", "public_transport": "platform", "shelter": "yes", "tactile_paving": "yes", "zone": "5713"}}, {"type": "node", "id": 721160460, "lat": 52.3752613, "lon": 4.870595, "tags": {"bench": "yes", "bin": "yes", "bus": "yes", "cxx:code": "57000040", "cxx:id": "31702", "highway": "bus_stop", "lit": "yes", "name": "Gillis van Ledenberchstraat", "public_transport": "platform", "shelter": "yes", "tactile_paving": "no", "wheelchair": "yes", "zone": "5700"}}, {"type": "node", "id": 721160464, "lat": 52.3859881, "lon": 4.7449522, "tags": {"bus": "yes", "cxx:code": "55230060", "cxx:id": "30583", "highway": "bus_stop", "name": "Station Halfweg-Zwanenburg", "public_transport": "platform", "shelter": "yes", "source": "CXX", "zone": "5523"}}, {"type": "node", "id": 721160471, "lat": 52.4044254, "lon": 4.7588078, "tags": {"bus": "yes", "cxx:code": "57221010", "cxx:id": "32857", "highway": "bus_stop", "name": "Oceaangroep", "public_transport": "platform", "source": "CXX", "zone": "5722"}}, {"type": "node", "id": 721160481, "lat": 52.3946693, "lon": 4.8087242, "tags": {"cxx:code": "57221140", "cxx:id": "32873", "highway": "bus_stop", "name": "Hornhaven", "public_transport": "platform", "shelter": "yes", "source": "CXX", "zone": "5722"}}, {"type": "node", "id": 721160485, "lat": 52.3901959, "lon": 4.8269676, "tags": {"bench": "no", "bus": "yes", "cxx:code": "57221132", "cxx:id": "32872", "highway": "bus_stop", "name": "Kapoeasweg", "public_transport": "platform", "shelter": "no", "source": "CXX", "tactile_paving": "no", "zone": "5722"}}, {"type": "node", "id": 721160504, "lat": 52.3750821, "lon": 4.8708319, "tags": {"bench": "yes", "bin": "yes", "bus": "yes", "cxx:code": "57000030", "cxx:id": "31700", "highway": "bus_stop", "lit": "yes", "name": "Gillis van Ledenberchstraat", "public_transport": "platform", "shelter": "yes", "tactile_paving": "yes", "wheelchair": "yes", "zone": "5700"}}, {"type": "node", "id": 721160507, "lat": 52.385615, "lon": 4.7462655, "tags": {"bus": "yes", "cxx:code": "55230030", "cxx:id": "30580", "highway": "bus_stop", "name": "Station Halfweg-Zwanenburg", "public_transport": "platform", "source": "CXX", "zone": "5523"}}, {"type": "node", "id": 721160527, "lat": 52.4069521, "lon": 4.7522911, "tags": {"bus": "yes", "cxx:code": "57320030", "cxx:id": "33452", "highway": "bus_stop", "name": "Ruigoord Dorp", "public_transport": "platform", "source": "CXX", "zone": "5503;5722"}}, {"type": "node", "id": 721160534, "lat": 52.3979744, "lon": 4.7776807, "tags": {"bus": "yes", "cxx:code": "57221220", "cxx:id": "32881", "highway": "bus_stop", "name": "Dortmuiden", "public_transport": "platform", "source": "CXX", "zone": "5722"}}, {"type": "node", "id": 721160544, "lat": 52.3902555, "lon": 4.8201059, "tags": {"bench": "no", "bus": "yes", "cxx:code": "57221112", "cxx:id": "32868", "highway": "bus_stop", "name": "Oderweg", "public_transport": "platform", "shelter": "no", "source": "CXX", "zone": "5722"}}, {"type": "node", "id": 721160550, "lat": 52.3902003, "lon": 4.8331223, "tags": {"bench": "no", "bus": "yes", "cxx:code": "57221152", "cxx:id": "32876", "highway": "bus_stop", "name": "Kastrupstraat", "public_transport": "platform", "shelter": "no", "source": "CXX", "tactile_paving": "no", "zone": "5722"}}, {"type": "node", "id": 721160589, "lat": 52.3810173, "lon": 4.8552586, "tags": {"bench": "yes", "bin": "yes", "cxx:code": "57134320", "cxx:id": "32463", "highway": "bus_stop", "name": "Bos en Lommerweg", "public_transport": "platform", "shelter": "yes", "source": "CXX", "zone": "5713"}}, {"type": "node", "id": 721160624, "lat": 52.3837299, "lon": 4.7560459, "tags": {"bench": "yes", "bus": "yes", "cxx:code": "55230050", "cxx:id": "30582", "highway": "bus_stop", "name": "Oranje Nassaustraat", "public_transport": "platform", "shelter": "yes", "source": "CXX", "zone": "5523"}}, {"type": "node", "id": 721160646, "lat": 52.4049341, "lon": 4.759324, "tags": {"bus": "yes", "cxx:code": "57320010", "cxx:id": "33450", "highway": "bus_stop", "name": "Oceaangroep", "public_transport": "platform", "source": "CXX", "zone": "5722;5732"}}, {"type": "node", "id": 721160651, "lat": 52.3975549, "lon": 4.7952342, "tags": {"bus": "yes", "cxx:code": "57221230", "cxx:id": "32882", "highway": "bus_stop", "name": "Westpoortweg", "public_transport": "platform", "source": "CXX", "zone": "5722"}}, {"type": "node", "id": 721160662, "lat": 52.3900862, "lon": 4.8279674, "tags": {"bench": "yes", "bus": "yes", "cxx:code": "57221131", "cxx:id": "32871", "highway": "bus_stop", "name": "Kapoeasweg", "public_transport": "platform", "shelter": "yes", "source": "CXX", "tactile_paving": "no", "zone": "5722"}}, {"type": "node", "id": 721160678, "lat": 52.3816444, "lon": 4.8588001, "tags": {"bench": "yes", "bin": "yes", "cxx:code": "57131520", "cxx:id": "32344", "highway": "bus_stop", "lit": "yes", "name": "Charlotte de Bourbonstraat", "public_transport": "platform", "shelter": "yes", "tactile_paving": "yes", "wheelchair": "yes", "zone": "5713"}}, {"type": "node", "id": 721160691, "lat": 52.4076552, "lon": 4.7499243, "tags": {"bus": "yes", "cxx:code": "57320020", "cxx:id": "33451", "highway": "bus_stop", "name": "Ruigoord Dorp", "public_transport": "platform", "source": "CXX", "zone": "5503;5732"}}, {"type": "node", "id": 721160700, "lat": 52.3973318, "lon": 4.7790374, "tags": {"bus": "yes", "cxx:code": "57221210", "cxx:id": "32880", "highway": "bus_stop", "name": "Dortmuiden", "public_transport": "platform", "source": "CXX", "zone": "5722"}}, {"type": "node", "id": 721160711, "lat": 52.3950184, "lon": 4.8074379, "tags": {"cxx:code": "57221070", "cxx:id": "32863", "highway": "bus_stop", "name": "Hornhaven", "public_transport": "platform", "shelter": "yes", "source": "CXX", "zone": "5722"}}, {"type": "node", "id": 721160750, "lat": 52.3900938, "lon": 4.8334174, "tags": {"bench": "yes", "bus": "yes", "cxx:code": "57221151", "cxx:id": "32875", "highway": "bus_stop", "name": "Kastrupstraat", "public_transport": "platform", "shelter": "yes", "source": "CXX", "tactile_paving": "no", "zone": "5722"}}, {"type": "node", "id": 721160757, "lat": 52.3809655, "lon": 4.8597334, "tags": {"bench": "yes", "bin": "yes", "cxx:code": "57131530", "cxx:id": "32345", "highway": "bus_stop", "lit": "yes", "name": "Charlotte de Bourbonstraat", "public_transport": "platform", "shelter": "yes", "tactile_paving": "yes", "wheelchair": "yes", "zone": "5713"}}, {"type": "node", "id": 721160774, "lat": 52.3781673, "lon": 4.8623664, "tags": {"bench": "yes", "bin": "yes", "bus": "yes", "cxx:code": "57131550", "cxx:id": "32347", "highway": "bus_stop", "lit": "yes", "name": "De Rijpgracht", "public_transport": "platform", "shelter": "yes", "tactile_paving": "yes", "zone": "5713"}}, {"type": "node", "id": 721160795, "lat": 52.3839995, "lon": 4.7527918, "tags": {"bench": "yes", "bus": "yes", "cxx:code": "55230040", "cxx:id": "30581", "highway": "bus_stop", "name": "Oranje Nassaustraat", "public_transport": "platform", "shelter": "yes", "source": "CXX", "zone": "5523"}}, {"type": "node", "id": 721160812, "lat": 52.3979318, "lon": 4.7938352, "tags": {"bus": "yes", "cxx:code": "57221240", "cxx:id": "32883", "highway": "bus_stop", "name": "Westpoortweg", "public_transport": "platform", "source": "CXX", "zone": "5722"}}, {"type": "node", "id": 721160818, "lat": 52.3900827, "lon": 4.8215625, "tags": {"bench": "yes", "bus": "yes", "cxx:code": "57221111", "cxx:id": "32867", "highway": "bus_stop", "name": "Oderweg", "public_transport": "platform", "shelter": "yes", "source": "CXX", "tactile_paving": "no", "zone": "5722"}}, {"type": "node", "id": 724099192, "lat": 52.3260914, "lon": 4.8794364, "tags": {"cxx:code": "57142920", "cxx:id": "32629", "highway": "bus_stop", "name": "Kastelenstraat", "public_transport": "platform", "wheelchair": "yes", "zone": "5714"}}, {"type": "node", "id": 724099210, "lat": 52.3341583, "lon": 4.8794685, "tags": {"bus": "yes", "cxx:code": "57142970", "cxx:id": "32635", "highway": "bus_stop", "name": "Hogewerf", "public_transport": "platform", "wheelchair": "yes", "zone": "5714"}}, {"type": "node", "id": 724099267, "lat": 52.3266215, "lon": 4.8795783, "tags": {"cxx:code": "57143010", "cxx:id": "32639", "highway": "bus_stop", "name": "Kastelenstraat", "public_transport": "platform", "wheelchair": "yes", "zone": "5714"}}, {"type": "node", "id": 724099331, "lat": 52.3248524, "lon": 4.877049, "tags": {"cxx:code": "57142510", "cxx:id": "32585", "highway": "bus_stop", "name": "Backershagen", "public_transport": "platform", "zone": "5714"}}, {"type": "node", "id": 724099335, "lat": 52.3344747, "lon": 4.8790008, "tags": {"bus": "yes", "cxx:code": "57142930", "cxx:id": "32630", "highway": "bus_stop", "name": "Hogewerf", "public_transport": "platform", "wheelchair": "limited", "zone": "5714"}}, {"type": "node", "id": 724099347, "lat": 52.3373046, "lon": 4.8766771, "tags": {"bus": "yes", "cxx:code": "57140330", "cxx:id": "32529", "highway": "bus_stop", "name": "Gustav Mahlerlaan", "public_transport": "platform", "zone": "5714"}}, {"type": "node", "id": 724099372, "lat": 52.3246683, "lon": 4.8751102, "tags": {"cxx:code": "57142520", "cxx:id": "32586", "highway": "bus_stop", "name": "Backershagen", "public_transport": "platform", "zone": "5714"}}, {"type": "node", "id": 724099373, "lat": 52.33092, "lon": 4.879574, "tags": {"cxx:code": "57142990", "cxx:id": "32637", "highway": "bus_stop", "name": "Gelderlandplein Oost", "public_transport": "platform", "wheelchair": "limited", "zone": "5714"}}, {"type": "node", "id": 724099414, "lat": 52.3369632, "lon": 4.877254, "tags": {"bus": "yes", "cxx:code": "57140320", "cxx:id": "32528", "highway": "bus_stop", "name": "Gustav Mahlerlaan", "public_transport": "platform", "zone": "5714"}}, {"type": "node", "id": 724344094, "lat": 52.3415745, "lon": 4.8009753, "tags": {"bus": "yes", "cxx:code": "57232220", "cxx:id": "32934", "highway": "bus_stop", "name": "Ditlaar", "public_transport": "platform", "source": "CXX", "zone": "5723"}}, {"type": "node", "id": 724344100, "lat": 52.3512422, "lon": 4.856734, "tags": {"bus": "yes", "highway": "bus_stop", "name": "Zeilstraat", "public_transport": "stop_position", "railway": "tram_stop", "tactile_paving": "yes", "tram": "yes"}}, {"type": "node", "id": 724344107, "lat": 52.3432274, "lon": 4.7973981, "tags": {"bus": "yes", "cxx:code": "57232250", "cxx:id": "32937", "highway": "bus_stop", "name": "Osdorperweg", "public_transport": "platform", "shelter": "yes", "source": "CXX", "zone": "5723"}}, {"type": "node", "id": 724344111, "lat": 52.3470382, "lon": 4.846544, "tags": {"bench": "yes", "bus": "yes", "cxx:code": "57132050", "cxx:id": "32396", "highway": "bus_stop", "name": "Aalsmeerplein", "public_transport": "platform", "shelter": "yes", "zone": "5713"}}, {"type": "node", "id": 724344116, "lat": 52.3470395, "lon": 4.8384823, "tags": {"bus": "yes", "cxx:code": "57132090", "cxx:id": "32400", "highway": "bus_stop", "name": "Maassluisstraat", "public_transport": "platform", "zone": "5713"}}, {"type": "node", "id": 724344841, "lat": 52.3413599, "lon": 4.8074752, "tags": {"bus": "yes", "cxx:code": "57232200", "cxx:id": "32932", "highway": "bus_stop", "name": "Sportpark Sloten", "public_transport": "platform", "source": "CXX", "zone": "5723"}}, {"type": "node", "id": 724344875, "lat": 52.3468246, "lon": 4.8426456, "tags": {"bus": "yes", "cxx:code": "57132260", "cxx:id": "32417", "highway": "bus_stop", "name": "Naaldwijkstraat", "public_transport": "platform", "zone": "5713"}}, {"type": "node", "id": 724344974, "lat": 52.3506304, "lon": 4.8494018, "tags": {"bus": "yes", "cxx:code": "57132230", "cxx:id": "32414", "highway": "bus_stop", "name": "Hoofddorpplein", "public_transport": "platform", "shelter": "yes", "zone": "5713"}}, {"type": "node", "id": 724344999, "lat": 52.3416651, "lon": 4.801122, "tags": {"bus": "yes", "cxx:code": "57232230", "cxx:id": "32935", "highway": "bus_stop", "name": "Ditlaar", "public_transport": "platform", "source": "CXX", "zone": "5723"}}, {"type": "node", "id": 724345015, "lat": 52.3468905, "lon": 4.8337234, "tags": {"bench": "yes", "bin": "yes", "bus": "yes", "cxx:code": "57132100", "cxx:id": "32401", "highway": "bus_stop", "lit": "yes", "name": "Ottho Heldringstraat", "public_transport": "platform", "shelter": "yes", "tactile_paving": "yes", "zone": "5713"}}, {"type": "node", "id": 724345067, "lat": 52.3431847, "lon": 4.7976387, "tags": {"bus": "yes", "cxx:code": "57232240", "cxx:id": "32936", "highway": "bus_stop", "name": "Osdorperweg", "public_transport": "platform", "source": "CXX", "zone": "5723"}}, {"type": "node", "id": 724345133, "lat": 52.3507256, "lon": 4.8495231, "tags": {"bus": "yes", "cxx:code": "57132240", "cxx:id": "32415", "highway": "bus_stop", "name": "Hoofddorpplein", "public_transport": "platform", "shelter": "yes", "tactile_paving": "yes", "zone": "5713"}}, {"type": "node", "id": 724345142, "lat": 52.3469428, "lon": 4.8285137, "tags": {"bench": "yes", "bin": "yes", "bus": "yes", "cxx:code": "57132290", "cxx:id": "32420", "highway": "bus_stop", "lit": "yes", "name": "Aletta Jacobslaan", "public_transport": "platform", "shelter": "yes", "tactile_paving": "yes", "zone": "5713"}}, {"type": "node", "id": 724345166, "lat": 52.3470378, "lon": 4.8331505, "tags": {"bench": "yes", "bus": "yes", "cxx:code": "57132100", "cxx:id": "32401", "highway": "bus_stop", "name": "Ottho Heldringstraat", "public_transport": "platform", "shelter": "yes", "tactile_paving": "yes", "zone": "5713"}}, {"type": "node", "id": 724345172, "lat": 52.3470537, "lon": 4.8468358, "tags": {"bench": "yes", "bus": "yes", "cxx:code": "57132040", "cxx:id": "32395", "highway": "bus_stop", "name": "Aalsmeerplein", "public_transport": "platform", "shelter": "yes", "zone": "5713"}}, {"type": "node", "id": 724345268, "lat": 52.3517583, "lon": 4.8564723, "tags": {"highway": "bus_stop", "name": "Calamiteitenhalte, Amstelveenseweg", "note": "Calamiteitenhalte bij omleidingen en/of stremmingen.", "public_transport": "stop_position", "railway": "tram_stop", "tram": "yes"}}, {"type": "node", "id": 724345286, "lat": 52.3469045, "lon": 4.8424245, "tags": {"bus": "yes", "cxx:code": "57132250", "cxx:id": "32416", "highway": "bus_stop", "name": "Naaldwijkstraat", "public_transport": "platform", "zone": "5713"}}, {"type": "node", "id": 724345368, "lat": 52.3469382, "lon": 4.8388639, "tags": {"bus": "yes", "cxx:code": "57132080", "cxx:id": "32399", "highway": "bus_stop", "name": "Maassluisstraat", "public_transport": "platform", "zone": "5713"}}, {"type": "node", "id": 724345380, "lat": 52.3414232, "lon": 4.8067601, "tags": {"bus": "yes", "cxx:code": "57232210", "cxx:id": "32933", "highway": "bus_stop", "name": "Sportpark Sloten", "public_transport": "platform", "source": "CXX", "zone": "5723"}}, {"type": "node", "id": 724345446, "lat": 52.3468545, "lon": 4.8289743, "tags": {"bench": "yes", "bin": "yes", "bus": "yes", "cxx:code": "57132280", "cxx:id": "32419", "highway": "bus_stop", "lit": "yes", "name": "Aletta Jacobslaan", "public_transport": "platform", "shelter": "yes", "tactile_paving": "yes", "zone": "5713"}}, {"type": "node", "id": 726816857, "lat": 52.3764197, "lon": 4.7471035, "tags": {"bench": "yes", "bus": "yes", "highway": "bus_stop", "name": "De Olm", "public_transport": "platform", "ref:IFOPT": "NL:Q:55232250", "shelter": "yes", "zone": "5523"}}, {"type": "node", "id": 726816878, "lat": 52.3382331, "lon": 4.8573523, "tags": {"bench": "no", "bin": "yes", "bus": "yes", "cxx:code": "57144010", "cxx:id": "32660", "highway": "bus_stop", "lit": "yes", "name": "Amstelveenseweg", "public_transport": "platform", "ref:IFOPT": "NL:Q:30007490", "shelter": "yes", "source": "CXX", "tactile_paving": "yes", "zone": "5714"}}, {"type": "node", "id": 726817020, "lat": 52.3350716, "lon": 4.8761986, "tags": {"bus": "yes", "cxx:code": "57140300", "cxx:id": "32526", "highway": "bus_stop", "name": "Willem van Weldammelaan", "public_transport": "platform", "wheelchair": "limited", "zone": "5714"}}, {"type": "node", "id": 726817141, "lat": 52.3793844, "lon": 4.7513519, "tags": {"bench": "yes", "bus": "yes", "highway": "bus_stop", "name": "Wilgenlaan", "operator": "MeerOVBus", "public_transport": "platform", "ref:IFOPT": "NL:Q:55232150", "shelter": "yes", "zone": "5523"}}, {"type": "node", "id": 726817278, "lat": 52.3760495, "lon": 4.7465434, "tags": {"bench": "yes", "bus": "yes", "highway": "bus_stop", "name": "De Olm", "public_transport": "platform", "ref:IFOPT": "NL:Q:55232260", "shelter": "yes", "zone": "5523"}}, {"type": "node", "id": 726817584, "lat": 52.3795451, "lon": 4.7512802, "tags": {"bench": "no", "bus": "yes", "highway": "bus_stop", "name": "Wilgenlaan", "public_transport": "platform", "ref:IFOPT": "NL:Q:55232480", "shelter": "no", "zone": "5523"}}, {"type": "node", "id": 726817956, "lat": 52.3739467, "lon": 4.745186, "tags": {"bus": "yes", "cxx:code": "55232210", "cxx:id": "30601", "highway": "bus_stop", "name": "Piersonstraat", "public_transport": "platform", "source": "CXX", "zone": "5523"}}, {"type": "node", "id": 726818138, "lat": 52.38284, "lon": 4.7543401, "tags": {"bus": "yes", "cxx:code": "55231210", "cxx:id": "30584", "highway": "bus_stop", "name": "Oranje Nassaustraat", "public_transport": "platform", "source": "CXX", "zone": "5523"}}, {"type": "node", "id": 727799736, "lat": 52.333443, "lon": 4.8097322, "tags": {"cxx:code": "57232620", "cxx:id": "32969", "highway": "bus_stop", "name": "Oude Haagseweg", "public_transport": "platform", "source": "CXX", "zone": "5723"}}, {"type": "node", "id": 727799940, "lat": 52.3320027, "lon": 4.869693, "tags": {"bus": "yes", "cxx:code": "57142070", "cxx:id": "32540", "highway": "bus_stop", "name": "Arent Janszoon Ernststraat", "public_transport": "platform", "shelter": "yes", "wheelchair": "yes", "zone": "5714"}}, {"type": "node", "id": 727799964, "lat": 52.3320442, "lon": 4.8764015, "tags": {"bench": "yes", "bus": "yes", "highway": "bus_stop", "name": "Gelderlandplein Noord", "public_transport": "platform", "ref:IFOPT": "NL:Q:30007122", "shelter": "yes", "wheelchair": "yes", "zone": "5714"}}, {"type": "node", "id": 727800024, "lat": 52.3321236, "lon": 4.8697031, "tags": {"bus": "yes", "cxx:code": "57142120", "cxx:id": "32545", "highway": "bus_stop", "name": "Arent Janszoon Ernststraat", "public_transport": "platform", "shelter": "yes", "tactile_paving": "yes", "wheelchair": "yes", "zone": "5714"}}, {"type": "node", "id": 729547467, "lat": 52.3160502, "lon": 4.9787095, "tags": {"bench": "yes", "bin": "yes", "bus": "yes", "highway": "bus_stop", "lit": "yes", "name": "Kraaienneststation", "public_transport": "platform", "ref:IFOPT": "NL:Q:30000141", "shelter": "yes", "tactile_paving": "yes", "website": "https://9292.nl/en/amsterdam/bushalte-kraaienneststation", "zone": "5725"}}, {"type": "node", "id": 729547472, "lat": 52.3228454, "lon": 4.9807986, "tags": {"bus": "yes", "highway": "bus_stop", "name": "Geerdinkhof", "public_transport": "platform", "shelter": "yes", "wheelchair": "no"}}, {"type": "node", "id": 729547477, "lat": 52.3167855, "lon": 4.9813771, "tags": {"bench": "yes", "bin": "yes", "bus": "yes", "check_date:shelter": "2022-03-13", "highway": "bus_stop", "lit": "yes", "name": "Kraaienneststation", "public_transport": "platform", "ref:IFOPT": "NL:Q:30000552", "shelter": "yes", "tactile_paving": "no", "website": "https://9292.nl/en/amsterdam/bushalte-kraaienneststation", "zone": "5725"}}, {"type": "node", "id": 729547478, "lat": 52.3189861, "lon": 4.9840177, "tags": {"bench": "yes", "bin": "yes", "highway": "bus_stop", "name": "Koornhorst", "public_transport": "platform", "shelter": "yes", "tactile_paving": "no"}}, {"type": "node", "id": 729547545, "lat": 52.3236297, "lon": 4.9803051, "tags": {"bus": "yes", "cxx:code": "57252240", "cxx:id": "33321", "departures_board": "timetable", "highway": "bus_stop", "name": "Geerdinkhof", "public_transport": "platform", "shelter": "yes", "tactile_paving": "no", "wheelchair": "no", "zone": "5725"}}, {"type": "node", "id": 729547547, "lat": 52.3159853, "lon": 4.9807441, "tags": {"bench": "yes", "bus": "yes", "highway": "bus_stop", "name": "Kraaienneststation", "public_transport": "platform", "ref:IFOPT": "NL:Q:30000553", "shelter": "yes", "zone": "5725"}}, {"type": "node", "id": 729547549, "lat": 52.3193345, "lon": 4.9482522, "tags": {"bench": "yes", "bus": "yes", "cxx:code": "57252740", "cxx:id": "33367", "highway": "bus_stop", "name": "Dolingadreef", "public_transport": "platform", "shelter": "yes", "zone": "5725"}}, {"type": "node", "id": 729547550, "lat": 52.3251521, "lon": 4.9709409, "tags": {"bus": "yes", "cxx:code": "57252160", "cxx:id": "33313", "highway": "bus_stop", "name": "Geldershoofd", "public_transport": "platform", "wheelchair": "no", "zone": "5725"}}, {"type": "node", "id": 729547552, "lat": 52.3250716, "lon": 4.9602974, "tags": {"cxx:code": "57254040", "cxx:id": "33408", "highway": "bus_stop", "name": "Echtenstein", "public_transport": "platform", "shelter": "yes", "zone": "5725"}}, {"type": "node", "id": 729547554, "lat": 52.3192894, "lon": 4.9840208, "tags": {"bench": "yes", "bin": "yes", "cxx:code": "57252280", "cxx:id": "33325", "highway": "bus_stop", "name": "Koornhorst", "public_transport": "platform", "shelter": "yes", "zone": "5725"}}, {"type": "node", "id": 729547557, "lat": 52.3249813, "lon": 4.9708409, "tags": {"bus": "yes", "highway": "bus_stop", "name": "Geldershoofd", "public_transport": "platform", "wheelchair": "no"}}, {"type": "node", "id": 761242604, "lat": 52.3511629, "lon": 4.8495714, "tags": {"bus": "yes", "highway": "bus_stop", "name": "Hoofddorpplein", "public_transport": "platform", "shelter": "yes", "tram": "yes", "wikidata": "Q111301513"}}, {"type": "node", "id": 775339413, "lat": 52.3351132, "lon": 4.941797, "tags": {"bench": "yes", "bin": "yes", "bus": "yes", "highway": "bus_stop", "lit": "yes", "name": "Burgemeester van Damstraat", "public_transport": "platform", "shelter": "yes", "tactile_paving": "yes", "zone": "5715"}}, {"type": "node", "id": 775339414, "lat": 52.3352113, "lon": 4.9419224, "tags": {"bench": "yes", "bin": "yes", "bus": "yes", "highway": "bus_stop", "lit": "yes", "name": "Burgemeester van Damstraat", "public_transport": "platform", "shelter": "yes", "tactile_paving": "yes", "zone": "5715"}}, {"type": "node", "id": 777402466, "lat": 52.3460233, "lon": 4.8162884, "tags": {"bench": "yes", "bus": "yes", "highway": "bus_stop", "name": "Antwerpenbaan", "public_transport": "platform", "ref:IFOPT": "NL:Q:30004308", "shelter": "yes", "wheelchair": "yes"}}, {"type": "node", "id": 777402498, "lat": 52.3458103, "lon": 4.815886, "tags": {"bench": "yes", "bus": "yes", "highway": "bus_stop", "name": "Antwerpenbaan", "public_transport": "platform", "ref:IFOPT": "NL:Q:30004307", "shelter": "yes", "wheelchair": "yes", "zone": "5723"}}, {"type": "node", "id": 777403971, "lat": 52.3505651, "lon": 4.8105122, "tags": {"bus": "yes", "highway": "bus_stop", "name": "Plesmanlaan", "public_transport": "platform", "wheelchair": "yes"}}, {"type": "node", "id": 777404081, "lat": 52.3475201, "lon": 4.8053718, "tags": {"bus": "yes", "highway": "bus_stop", "name": "Westmallepad", "public_transport": "platform"}}, {"type": "node", "id": 777404089, "lat": 52.3469581, "lon": 4.8053102, "tags": {"bench": "yes", "bus": "yes", "covered": "yes", "highway": "bus_stop", "name": "Westmallepad", "network": "Parkshuttle Rivium", "network:wikidata": "Q108721420", "operator": "Connexxion", "public_transport": "platform", "shelter": "yes"}}, {"type": "node", "id": 777404316, "lat": 52.3537183, "lon": 4.8075959, "tags": {"bench": "yes", "bin": "yes", "bus": "yes", "highway": "bus_stop", "lit": "no", "name": "Louis Davidsstraat", "public_transport": "platform", "shelter": "yes", "tactile_paving": "no", "wheelchair": "yes", "zone": "5713"}}, {"type": "node", "id": 777404922, "lat": 52.3593589, "lon": 4.8077813, "tags": {"bus": "yes", "highway": "bus_stop", "name": "Osdorpplein Oost", "public_transport": "platform", "shelter": "yes", "wheelchair": "yes"}}, {"type": "node", "id": 798681777, "lat": 52.3926218, "lon": 4.9269245, "tags": {"bench": "yes", "bus": "yes", "highway": "bus_stop", "name": "Waddenweg", "public_transport": "platform", "shelter": "yes", "zone": "5711"}}, {"type": "node", "id": 1079768879, "lat": 52.3904398, "lon": 4.9456343, "tags": {"bus": "yes", "highway": "bus_stop", "name": "Purmerplein", "public_transport": "platform", "zone": "5711"}}, {"type": "node", "id": 1079768882, "lat": 52.3941606, "lon": 4.9345553, "tags": {"bench": "yes", "bin": "yes", "bus": "yes", "highway": "bus_stop", "lit": "yes", "name": "Nieuwe Purmerweg", "public_transport": "platform", "shelter": "yes", "tactile_paving": "yes", "zone": "5711"}}, {"type": "node", "id": 1079768915, "lat": 52.392691, "lon": 4.9395228, "tags": {"bus": "yes", "highway": "bus_stop", "name": "Wervershoofstraat", "public_transport": "platform", "zone": "5711"}}, {"type": "node", "id": 1079768926, "lat": 52.3734195, "lon": 4.9064773, "tags": {"bench": "yes", "bin": "yes", "bus": "yes", "highway": "bus_stop", "lit": "yes", "name": "Prins Hendrikkade", "public_transport": "platform", "shelter": "yes", "tactile_paving": "no", "zone": "5700"}}, {"type": "node", "id": 1079768931, "lat": 52.3926169, "lon": 4.952932, "tags": {"bench": "yes", "bus": "yes", "highway": "bus_stop", "name": "Waterlandplein", "public_transport": "platform", "ref:IFOPT": "NL:Q:30001071", "shelter": "yes", "zone": "5711"}}, {"type": "node", "id": 1079768939, "lat": 52.3950048, "lon": 4.9446154, "tags": {"bench": "yes", "bus": "yes", "highway": "bus_stop", "name": "Ilperveldstraat", "public_transport": "platform", "ref:IFOPT": "NL:Q:30001067", "shelter": "yes", "zone": "5711"}}, {"type": "node", "id": 1079768947, "lat": 52.3917706, "lon": 4.9539139, "tags": {"bench": "yes", "bus": "yes", "highway": "bus_stop", "name": "Waterlandplein", "public_transport": "platform", "ref:IFOPT": "NL:Q:30001076", "shelter": "yes", "zone": "5711"}}, {"type": "node", "id": 1079768976, "lat": 52.3941478, "lon": 4.9480037, "tags": {"bench": "yes", "bus": "yes", "highway": "bus_stop", "name": "De Egmondenstraat", "public_transport": "platform", "ref:IFOPT": "NL:Q:30001070", "shelter": "yes", "zone": "5711"}}, {"type": "node", "id": 1079768982, "lat": 52.387722, "lon": 4.9231737, "tags": {"bus": "yes", "highway": "bus_stop", "name": "Johan van Hasseltweg", "public_transport": "platform", "shelter": "yes", "zone": "5711"}}, {"type": "node", "id": 1079768985, "lat": 52.3907909, "lon": 4.9458888, "tags": {"bus": "yes", "highway": "bus_stop", "name": "Purmerplein", "public_transport": "platform", "zone": "5711"}}, {"type": "node", "id": 1079768989, "lat": 52.3723269, "lon": 4.9094836, "tags": {"bench": "yes", "bin": "yes", "bus": "yes", "highway": "bus_stop", "name": "IJ tunnel", "operator": "GVB", "public_transport": "platform", "shelter": "yes", "wheelchair": "yes", "zone": "5700"}}, {"type": "node", "id": 1079768992, "lat": 52.3925736, "lon": 4.9403953, "tags": {"bench": "yes", "bin": "yes", "bus": "yes", "highway": "bus_stop", "lit": "yes", "name": "Wervershoofstraat", "public_transport": "platform", "shelter": "yes", "tactile_paving": "yes", "zone": "5711"}}, {"type": "node", "id": 1079768998, "lat": 52.3899542, "lon": 4.9485221, "tags": {"bench": "yes", "bus": "yes", "highway": "bus_stop", "name": "Purmerweg", "public_transport": "platform", "ref:IFOPT": "NL:Q:30001007", "shelter": "yes", "zone": "5711"}}, {"type": "node", "id": 1079769003, "lat": 52.3936136, "lon": 4.949413, "tags": {"bench": "yes", "bus": "yes", "highway": "bus_stop", "name": "De Egmondenstraat", "public_transport": "platform", "ref:IFOPT": "NL:Q:30001069", "shelter": "yes", "zone": "5711"}}, {"type": "node", "id": 1079901779, "lat": 52.3962327, "lon": 4.9545107, "tags": {"bus": "yes", "highway": "bus_stop", "name": "Dijkmanshuizenstraat", "public_transport": "platform", "zone": "5711"}}, {"type": "node", "id": 1079901785, "lat": 52.4034035, "lon": 4.9413908, "tags": {"bus": "yes", "highway": "bus_stop", "name": "Amerbos", "public_transport": "platform", "zone": "5711"}}, {"type": "node", "id": 1079901791, "lat": 52.392479, "lon": 4.9569584, "tags": {"bench": "yes", "bus": "yes", "highway": "bus_stop", "name": "Volendammerweg", "public_transport": "platform", "shelter": "yes", "zone": "5711"}}, {"type": "node", "id": 1079901795, "lat": 52.3970997, "lon": 4.9521478, "tags": {"bench": "yes", "bus": "yes", "highway": "bus_stop", "name": "Beemsterstraat", "public_transport": "platform", "ref:IFOPT": "NL:Q:30001237", "shelter": "yes", "zone": "5711"}}, {"type": "node", "id": 1079901801, "lat": 52.3981458, "lon": 4.9322578, "tags": {"bus": "yes", "highway": "bus_stop", "name": "Het Breed", "public_transport": "platform", "shelter": "yes", "zone": "5711"}}, {"type": "node", "id": 1079901803, "lat": 52.3976165, "lon": 4.9511011, "tags": {"bench": "yes", "bus": "yes", "highway": "bus_stop", "name": "Beemsterstraat", "public_transport": "platform", "ref:IFOPT": "NL:Q:30001091", "shelter": "yes", "zone": "5711"}}, {"type": "node", "id": 1079901805, "lat": 52.403129, "lon": 4.9424457, "tags": {"bus": "yes", "highway": "bus_stop", "name": "Amerbos", "public_transport": "platform", "zone": "5711"}}, {"type": "node", "id": 1079901813, "lat": 52.3955297, "lon": 4.9546564, "tags": {"bus": "yes", "highway": "bus_stop", "name": "Dijkmanshuizenstraat", "public_transport": "platform", "zone": "5711"}}, {"type": "node", "id": 1079901819, "lat": 52.4013769, "lon": 4.9442707, "tags": {"bus": "yes", "highway": "bus_stop", "name": "Spelderholt", "public_transport": "platform", "zone": "5711"}}, {"type": "node", "id": 1079901829, "lat": 52.4023409, "lon": 4.9376046, "tags": {"bus": "yes", "highway": "bus_stop", "name": "Bakkerswaal", "public_transport": "platform", "zone": "5711"}}, {"type": "node", "id": 1080048237, "lat": 52.4109747, "lon": 4.9174473, "tags": {"highway": "bus_stop", "name": "Voordek", "public_transport": "platform", "zone": "5711"}}, {"type": "node", "id": 1080048238, "lat": 52.4126135, "lon": 4.9192954, "tags": {"highway": "bus_stop", "name": "Tussendek", "public_transport": "platform", "zone": "5711"}}, {"type": "node", "id": 1080048240, "lat": 52.4081644, "lon": 4.9230739, "tags": {"highway": "bus_stop", "name": "Grootzeil", "public_transport": "platform", "zone": "5711"}}, {"type": "node", "id": 1080048242, "lat": 52.4133767, "lon": 4.9229852, "tags": {"highway": "bus_stop", "name": "Staghof", "public_transport": "platform", "zone": "5711"}}, {"type": "node", "id": 1080048244, "lat": 52.4131462, "lon": 4.9200102, "tags": {"highway": "bus_stop", "name": "Tussendek", "public_transport": "platform", "zone": "5711"}}, {"type": "node", "id": 1080048245, "lat": 52.4086637, "lon": 4.9241196, "tags": {"highway": "bus_stop", "name": "Grootzeil", "public_transport": "platform", "zone": "5711"}}, {"type": "node", "id": 1080048246, "lat": 52.4105294, "lon": 4.9167576, "tags": {"highway": "bus_stop", "name": "Voordek", "public_transport": "platform", "zone": "5711"}}, {"type": "node", "id": 1080048247, "lat": 52.4119089, "lon": 4.9260647, "tags": {"highway": "bus_stop", "name": "Masthof", "public_transport": "platform", "zone": "5711"}}, {"type": "node", "id": 1080057244, "lat": 52.4082598, "lon": 4.8987878, "tags": {"bus": "yes", "highway": "bus_stop", "name": "Nageljongenstraat", "public_transport": "platform", "zone": "5711"}}, {"type": "node", "id": 1080057245, "lat": 52.3991742, "lon": 4.907681, "tags": {"bus": "yes", "highway": "bus_stop", "name": "Slijperweg", "public_transport": "platform", "ref:IFOPT": "NL:Q:30001194", "zone": "5711"}}, {"type": "node", "id": 1080057250, "lat": 52.4082474, "lon": 4.8996049, "tags": {"bus": "yes", "highway": "bus_stop", "name": "Nageljongenstraat", "public_transport": "platform", "wheelchair": "yes", "zone": "5711"}}, {"type": "node", "id": 1080057263, "lat": 52.4033004, "lon": 4.8977648, "tags": {"bus": "yes", "highway": "bus_stop", "name": "Atat\u00fcrk", "public_transport": "platform", "zone": "5711"}}, {"type": "node", "id": 1080116918, "lat": 52.4178981, "lon": 4.8854963, "tags": {"bus": "yes", "highway": "bus_stop", "name": "Petmolen", "public_transport": "platform", "zone": "5711"}}, {"type": "node", "id": 1080116921, "lat": 52.4123053, "lon": 4.8869268, "tags": {"highway": "bus_stop", "name": "Maanstraat", "public_transport": "platform", "ref:IFOPT": "NL:Q:30001205", "zone": "5711"}}, {"type": "node", "id": 1080116922, "lat": 52.4179749, "lon": 4.8936361, "tags": {"bus": "yes", "highway": "bus_stop", "name": "Molenwijk", "public_transport": "platform", "zone": "5711"}}, {"type": "node", "id": 1080116923, "lat": 52.4087966, "lon": 4.8954501, "tags": {"bus": "yes", "highway": "bus_stop", "name": "Pomonastraat", "public_transport": "platform", "zone": "5711"}}, {"type": "node", "id": 1080116926, "lat": 52.4171984, "lon": 4.886216, "tags": {"bus": "yes", "highway": "bus_stop", "name": "Petmolen", "public_transport": "platform", "zone": "5711"}}, {"type": "node", "id": 1080116928, "lat": 52.4103026, "lon": 4.8910478, "tags": {"bus": "yes", "highway": "bus_stop", "name": "Meteorensingel", "public_transport": "platform", "ref:IFOPT": "NL:Q:30001204", "shelter": "yes", "zone": "5711"}}, {"type": "node", "id": 1080164430, "lat": 52.4036433, "lon": 4.9159799, "tags": {"bus": "yes", "highway": "bus_stop", "name": "Fluitschipstraat", "public_transport": "platform", "shelter": "yes", "zone": "5711"}}, {"type": "node", "id": 1089527514, "lat": 52.4156573, "lon": 4.8954686, "tags": {"bench": "yes", "bin": "yes", "bus": "yes", "check_date:shelter": "2022-05-13", "highway": "bus_stop", "name": "Appelweg", "public_transport": "platform", "ref:IFOPT": "NL:Q:30001225", "shelter": "yes", "zone": "5711"}}, {"type": "node", "id": 1223625910, "lat": 52.3407407, "lon": 4.8964871, "tags": {"bench": "yes", "bin": "yes", "bus": "yes", "highway": "bus_stop", "name": "Maasstraat", "public_transport": "platform", "shelter": "yes"}}, {"type": "node", "id": 1369130894, "lat": 52.4262675, "lon": 4.8344456, "tags": {"bus": "yes", "highway": "bus_stop", "name": "Delftse Rij", "public_transport": "platform", "zone": "3722"}}, {"type": "node", "id": 1369130896, "lat": 52.4229164, "lon": 4.8374398, "tags": {"bus": "yes", "highway": "bus_stop", "name": "Haven 132", "public_transport": "platform"}}, {"type": "node", "id": 1369130899, "lat": 52.4229573, "lon": 4.8375644, "tags": {"bus": "yes", "highway": "bus_stop", "name": "Haven 132", "public_transport": "platform"}}, {"type": "node", "id": 1369130902, "lat": 52.4204197, "lon": 4.8306849, "tags": {"bench": "no", "bus": "yes", "highway": "bus_stop", "name": "Hemkade", "note": "Haltepaal fysiek niet aanwezig.", "public_transport": "platform", "ref:IFOPT": "NL:Q:37223040", "shelter": "no", "zone": "3722"}}, {"type": "node", "id": 1369130905, "lat": 52.4204797, "lon": 4.8307061, "tags": {"bench": "no", "bus": "yes", "highway": "bus_stop", "name": "Hemkade", "note": "Haltepaal fysiek niet aanwezig.", "public_transport": "platform", "ref:IFOPT": "NL:Q:37223030", "shelter": "no", "zone": "3722"}}, {"type": "node", "id": 1369130907, "lat": 52.3400983, "lon": 4.8252164, "tags": {"bench": "yes", "bin": "yes", "bus": "yes", "highway": "bus_stop", "name": "John M. Keynesplein", "public_transport": "platform", "shelter": "no"}}, {"type": "node", "id": 1417863682, "lat": 52.3111664, "lon": 4.9643994, "tags": {"bench": "yes", "bin": "yes", "bus": "yes", "highway": "bus_stop", "lit": "yes", "name": "Nelson Mandelapark", "public_transport": "platform", "shelter": "yes", "tactile_paving": "yes", "website": "https://9292.nl/en/amsterdam/bushalte-bijlmerpark"}}, {"type": "node", "id": 1417863683, "lat": 52.3112674, "lon": 4.9653688, "tags": {"bench": "yes", "bin": "yes", "bus": "yes", "highway": "bus_stop", "lit": "yes", "name": "Nelson Mandelapark", "public_transport": "platform", "shelter": "yes", "tactile_paving": "yes", "website": "https://9292.nl/en/amsterdam/bushalte-bijlmerpark"}}, {"type": "node", "id": 1477227481, "lat": 52.3044327, "lon": 5.0128705, "tags": {"bench": "yes", "bin": "yes", "bus": "yes", "highway": "bus_stop", "name": "Geinbrug", "public_transport": "platform", "shelter": "yes", "zone": "5836"}}, {"type": "node", "id": 1477227486, "lat": 52.3044576, "lon": 5.0131265, "tags": {"bench": "yes", "bin": "yes", "bus": "yes", "highway": "bus_stop", "name": "Geinbrug", "public_transport": "platform", "shelter": "yes", "zone": "5836"}}, {"type": "node", "id": 1539260693, "lat": 52.3993263, "lon": 4.9074916, "tags": {"bus": "yes", "highway": "bus_stop", "name": "Slijperweg", "public_transport": "platform", "ref:IFOPT": "NL:Q:30001193", "zone": "5711"}}, {"type": "node", "id": 1546987542, "lat": 52.3409866, "lon": 4.9019065, "tags": {"bench": "yes", "bin": "yes", "bus": "yes", "highway": "bus_stop", "lit": "yes", "name": "President Kennedylaan", "public_transport": "platform", "shelter": "yes", "tactile_paving": "yes"}}, {"type": "node", "id": 1546987544, "lat": 52.3404398, "lon": 4.8984382, "tags": {"bus": "yes", "highway": "bus_stop", "name": "Maasstraat", "public_transport": "platform"}}, {"type": "node", "id": 1574352747, "lat": 52.3389623, "lon": 4.9395381, "tags": {"bench": "yes", "bin": "yes", "bus": "yes", "highway": "bus_stop", "name": "Zaaiersweg", "public_transport": "platform", "shelter": "yes", "zone": "5715"}}, {"type": "node", "id": 1574352767, "lat": 52.3398456, "lon": 4.9384217, "tags": {"bench": "yes", "bin": "yes", "bus": "yes", "highway": "bus_stop", "lit": "yes", "name": "Zaaiersweg", "public_transport": "platform", "shelter": "yes", "tactile_paving": "yes", "zone": "5715"}}, {"type": "node", "id": 1574494225, "lat": 52.3474338, "lon": 4.9397468, "tags": {"bench": "yes", "bin": "yes", "bus": "yes", "highway": "bus_stop", "lit": "yes", "name": "Kruislaan", "public_transport": "platform", "shelter": "yes", "tactile_paving": "yes", "zone": "5715"}}, {"type": "node", "id": 1574494232, "lat": 52.3454621, "lon": 4.9362362, "tags": {"bench": "yes", "bin": "yes", "bus": "yes", "highway": "bus_stop", "lit": "yes", "name": "Pekelharingstraat", "old_name": "Maxwellstraat", "public_transport": "platform", "shelter": "yes", "tactile_paving": "yes", "zone": "5715"}}, {"type": "node", "id": 1574543815, "lat": 52.324767, "lon": 4.9424088, "tags": {"bench": "yes", "bin": "yes", "bus": "yes", "highway": "bus_stop", "lit": "yes", "name": "Dalsteindreef", "public_transport": "platform", "shelter": "yes", "tactile_paving": "yes"}}, {"type": "node", "id": 1574543820, "lat": 52.324906, "lon": 4.94245, "tags": {"bench": "yes", "bin": "yes", "bus": "yes", "highway": "bus_stop", "lit": "yes", "name": "Dalsteindreef", "public_transport": "platform", "shelter": "yes", "tactile_paving": "yes"}}, {"type": "node", "id": 1574543822, "lat": 52.322754, "lon": 4.9453036, "tags": {"bus": "yes", "highway": "bus_stop", "name": "Dostojevskisingel", "public_transport": "platform", "shelter": "yes", "zone": "5725"}}, {"type": "node", "id": 1574543829, "lat": 52.3231487, "lon": 4.9446131, "tags": {"bus": "yes", "highway": "bus_stop", "name": "Dostojevskisingel", "public_transport": "platform", "shelter": "yes", "zone": "5725"}}, {"type": "node", "id": 1574543832, "lat": 52.3280187, "lon": 4.9394149, "tags": {"bench": "yes", "bus": "yes", "highway": "bus_stop", "name": "Kruidenommegang", "public_transport": "platform", "ref:IFOPT": "NL:Q:30000257", "shelter": "yes", "wheelchair": "yes", "zone": "5715"}}, {"type": "node", "id": 1574543837, "lat": 52.3279697, "lon": 4.939281, "tags": {"bench": "yes", "bus": "yes", "highway": "bus_stop", "name": "Kruidenommegang", "public_transport": "platform", "ref:IFOPT": "NL:Q:30000256", "shelter": "yes", "wheelchair": "yes", "zone": "5715"}}, {"type": "node", "id": 1574543851, "lat": 52.322916, "lon": 4.9362368, "tags": {"bus": "yes", "highway": "bus_stop", "name": "Station Duivendrecht", "public_transport": "platform", "zone": "5715"}}, {"type": "node", "id": 1574543853, "lat": 52.3229636, "lon": 4.9359667, "tags": {"bench": "yes", "bin": "yes", "bus": "yes", "highway": "bus_stop", "lit": "yes", "name": "Station Duivendrecht", "public_transport": "platform", "shelter": "yes", "tactile_paving": "yes", "zone": "5715"}}, {"type": "node", "id": 1574543854, "lat": 52.3241404, "lon": 4.9313492, "tags": {"bench": "yes", "bin": "no", "bus": "yes", "check_date:shelter": "2021-07-19", "highway": "bus_stop", "name": "Stationsweg", "public_transport": "platform", "shelter": "yes", "zone": "5715"}}, {"type": "node", "id": 1574543855, "lat": 52.324283, "lon": 4.9311466, "tags": {"bench": "yes", "bin": "no", "bus": "yes", "check_date:shelter": "2021-07-19", "highway": "bus_stop", "name": "Stationsweg", "public_transport": "platform", "shelter": "yes", "zone": "5715"}}, {"type": "node", "id": 1576873577, "lat": 52.3485663, "lon": 4.8161595, "tags": {"bus": "yes", "highway": "bus_stop", "name": "Maaseikpad", "public_transport": "platform", "wheelchair": "yes"}}, {"type": "node", "id": 1576873579, "lat": 52.3481501, "lon": 4.8158564, "tags": {"bus": "yes", "highway": "bus_stop", "name": "Maaspeikpad", "public_transport": "platform", "wheelchair": "yes"}}, {"type": "node", "id": 1596870422, "lat": 52.3713304, "lon": 4.9383586, "tags": {"bench": "yes", "bin": "yes", "bus": "yes", "highway": "bus_stop", "lit": "yes", "name": "Borneolaan", "public_transport": "platform", "ref:IFOPT": "NL:Q:30008055", "shelter": "yes", "tactile_paving": "yes", "wheelchair": "yes", "zone": "5700"}}, {"type": "node", "id": 1596870426, "lat": 52.3654364, "lon": 4.9394503, "tags": {"bench": "yes", "bin": "yes", "bus": "yes", "highway": "bus_stop", "lit": "yes", "name": "Zeeburgerdijk", "public_transport": "platform", "ref:IFOPT": "NL:Q:30008293", "shelter": "yes", "tactile_paving": "yes", "zone": "5715"}}, {"type": "node", "id": 1596870432, "lat": 52.3712232, "lon": 4.9392477, "tags": {"bench": "yes", "bin": "no", "bus": "yes", "highway": "bus_stop", "lit": "yes", "name": "Borneolaan", "public_transport": "platform", "ref:IFOPT": "NL:Q:30008056", "shelter": "yes", "tactile_paving": "yes", "wheelchair": "yes", "zone": "5700"}}, {"type": "node", "id": 1596870434, "lat": 52.3655297, "lon": 4.9395843, "tags": {"bench": "yes", "bin": "yes", "bus": "yes", "highway": "bus_stop", "lit": "yes", "name": "Zeeburgerdijk", "public_transport": "platform", "ref:IFOPT": "NL:Q:30008292", "shelter": "yes", "tactile_paving": "yes", "zone": "5715"}}, {"type": "node", "id": 1614149707, "lat": 52.3615445, "lon": 4.9392705, "tags": {"bench": "no", "bin": "yes", "bus": "yes", "highway": "bus_stop", "lit": "yes", "name": "Molukkenstraat", "public_transport": "platform", "ref:IFOPT": "NL:Q:30008190", "shelter": "yes", "tactile_paving": "no", "wheelchair": "limited"}}, {"type": "node", "id": 1655770268, "lat": 52.3592206, "lon": 4.8217311, "tags": {"bench": "yes", "bus": "yes", "highway": "bus_stop", "name": "Hemsterhuisstraat", "public_transport": "platform", "ref:IFOPT": "NL:Q:30004057", "shelter": "yes", "zone": "5713"}}, {"type": "node", "id": 1655770279, "lat": 52.3590519, "lon": 4.8218117, "tags": {"bench": "yes", "bus": "yes", "highway": "bus_stop", "name": "Hemsterhuisstraat", "public_transport": "platform", "ref:IFOPT": "NL:Q:30004058", "shelter": "yes", "zone": "5713"}}, {"type": "node", "id": 1700757673, "lat": 52.3536236, "lon": 4.8081286, "tags": {"bench": "yes", "bin": "yes", "bus": "yes", "cxx:code": "57131250", "cxx:id": "32318", "highway": "bus_stop", "lit": "no", "name": "Louis Davidsstraat", "public_transport": "platform", "shelter": "yes", "source": "CXX", "tactile_paving": "no", "wheelchair": "yes", "zone": "5713"}}, {"type": "node", "id": 1702349011, "lat": 52.3543221, "lon": 4.811593, "tags": {"bus": "yes", "highway": "bus_stop", "name": "C.K. Eloutstraat", "public_transport": "platform"}}, {"type": "node", "id": 1702349034, "lat": 52.3545407, "lon": 4.8117292, "tags": {"bus": "yes", "highway": "bus_stop", "name": "C.K. Eloutstraat", "public_transport": "platform"}}, {"type": "node", "id": 1711878366, "lat": 52.3308243, "lon": 4.8793221, "tags": {"bench": "yes", "cxx:code": "57142980", "cxx:id": "32636", "highway": "bus_stop", "name": "Gelderlandplein Oost", "public_transport": "platform", "shelter": "yes", "wheelchair": "yes", "zone": "5714"}}, {"type": "node", "id": 1711878504, "lat": 52.3240883, "lon": 4.8688177, "tags": {"bus": "yes", "cxx:code": "57142280", "cxx:id": "32562", "highway": "bus_stop", "name": "Van Boshuizenstraat", "public_transport": "platform", "wheelchair": "limited", "zone": "5714"}}, {"type": "node", "id": 1716115113, "lat": 52.4293528, "lon": 4.8565066, "tags": {"bus": "yes", "cxx:code": "37223551;37223604", "cxx:id": "8371;8380", "highway": "bus_stop", "name": "De Vlinder", "public_transport": "platform", "shelter": "yes", "source": "CXX", "zone": "3722"}}, {"type": "node", "id": 1716115140, "lat": 52.4293076, "lon": 4.8564467, "tags": {"bus": "yes", "cxx:code": "37223603;37223606", "cxx:id": "53079;8379", "highway": "bus_stop", "name": "De Vlinder", "public_transport": "platform", "shelter": "yes", "source": "CXX", "zone": "3722"}}, {"type": "node", "id": 1716115165, "lat": 52.4295666, "lon": 4.8564561, "tags": {"bus": "yes", "cxx:code": "37223550;37223552", "cxx:id": "53077;8370", "highway": "bus_stop", "name": "De Vlinder", "public_transport": "platform", "shelter": "yes", "source": "CXX", "zone": "3722"}}, {"type": "node", "id": 1733421744, "lat": 52.3629079, "lon": 4.8036438, "tags": {"bench": "yes", "bus": "yes", "highway": "bus_stop", "name": "Geer Ban", "public_transport": "platform", "shelter": "yes", "zone": "5713"}}, {"type": "node", "id": 1733421748, "lat": 52.3628358, "lon": 4.8041425, "tags": {"bench": "yes", "bus": "yes", "highway": "bus_stop", "name": "Geer Ban", "public_transport": "platform", "shelter": "yes", "zone": "5713"}}, {"type": "node", "id": 1734132978, "lat": 52.3374145, "lon": 4.9601254, "tags": {"bus": "yes", "highway": "bus_stop", "name": "Beukenhorst", "public_transport": "platform", "shelter": "yes", "zone": "5715"}}, {"type": "node", "id": 1734132979, "lat": 52.334957, "lon": 4.9554201, "tags": {"bus": "yes", "highway": "bus_stop", "name": "Bovenrijkersloot", "public_transport": "platform", "zone": "5715"}}, {"type": "node", "id": 1734132980, "lat": 52.3411472, "lon": 4.9628125, "tags": {"bus": "yes", "highway": "bus_stop", "name": "Burgemeester Bickerstraat", "public_transport": "platform", "zone": "5715"}}, {"type": "node", "id": 1734132981, "lat": 52.3490777, "lon": 4.9705618, "tags": {"bus": "yes", "highway": "bus_stop", "name": "Buytenweg", "public_transport": "platform", "zone": "5715"}}, {"type": "node", "id": 1734132983, "lat": 52.3475493, "lon": 4.97175, "tags": {"bus": "yes", "highway": "bus_stop", "name": "Landlust", "public_transport": "platform", "zone": "5715"}}, {"type": "node", "id": 1734132984, "lat": 52.3521016, "lon": 4.9763899, "tags": {"bus": "yes", "highway": "bus_stop", "name": "Meerkoet", "public_transport": "platform", "zone": "5715"}}, {"type": "node", "id": 1734132986, "lat": 52.3379129, "lon": 4.9681759, "tags": {"bus": "yes", "highway": "bus_stop", "name": "Prins Bernhardlaan", "public_transport": "platform", "zone": "5715"}}, {"type": "node", "id": 1734132987, "lat": 52.3395386, "lon": 4.9680987, "tags": {"bus": "yes", "highway": "bus_stop", "name": "Prins Bernhardlaan", "public_transport": "platform", "zone": "5715"}}, {"type": "node", "id": 1734132988, "lat": 52.3398937, "lon": 4.9677494, "tags": {"bench": "yes", "bin": "yes", "bus": "yes", "highway": "bus_stop", "name": "Prinses Beatrixlaan", "public_transport": "platform", "shelter": "yes", "tactile_paving": "yes", "zone": "5715"}}, {"type": "node", "id": 1734132989, "lat": 52.3508324, "lon": 4.9738114, "tags": {"bus": "yes", "highway": "bus_stop", "name": "Rietzangerweg", "public_transport": "platform", "zone": "5715"}}, {"type": "node", "id": 1734132991, "lat": 52.3308842, "lon": 4.9568941, "tags": {"bench": "yes", "bus": "yes", "highway": "bus_stop", "name": "Station Diemen Zuid", "public_transport": "platform", "shelter": "yes", "website": "https://9292.nl/en/diemen/bushalte-station-diemen-zuid", "wheelchair": "yes", "zone": "5715"}}, {"type": "node", "id": 1734132994, "lat": 52.3331145, "lon": 4.9547819, "tags": {"bus": "yes", "highway": "bus_stop", "name": "Tarwekamp", "public_transport": "platform", "zone": "5715"}}, {"type": "node", "id": 1734132995, "lat": 52.3491362, "lon": 4.9736048, "tags": {"bus": "yes", "highway": "bus_stop", "name": "Vogelweg", "public_transport": "platform", "zone": "5715"}}, {"type": "node", "id": 1734132996, "lat": 52.3418836, "lon": 4.9575143, "tags": {"bus": "yes", "highway": "bus_stop", "name": "Wilhelminaplantsoen", "public_transport": "platform", "zone": "5715"}}, {"type": "node", "id": 1734132997, "lat": 52.3418094, "lon": 4.9641539, "tags": {"bus": "yes", "highway": "bus_stop", "name": "Winkelcentrum", "public_transport": "platform", "zone": "5715"}}, {"type": "node", "id": 1734132998, "lat": 52.3525935, "lon": 4.9759125, "tags": {"bus": "yes", "highway": "bus_stop", "name": "Zeezigt", "public_transport": "platform", "shelter": "yes", "zone": "5715"}}, {"type": "node", "id": 1734136330, "lat": 52.3468981, "lon": 4.9858943, "tags": {"bus": "yes", "highway": "bus_stop", "name": "Diemen Noord", "public_transport": "platform", "shelter": "yes", "zone": "5715"}}, {"type": "node", "id": 1734136364, "lat": 52.3490208, "lon": 4.9826009, "tags": {"bus": "yes", "highway": "bus_stop", "name": "Klipperweg", "public_transport": "platform", "shelter": "yes", "zone": "5715"}}, {"type": "node", "id": 1734136394, "lat": 52.3508629, "lon": 4.9791188, "tags": {"bus": "yes", "highway": "bus_stop", "name": "Tureluurweg", "public_transport": "platform", "zone": "5715"}}, {"type": "node", "id": 1734152436, "lat": 52.3189741, "lon": 4.9490388, "tags": {"bench": "yes", "bin": "yes", "bus": "yes", "cxx:code": "57252730", "cxx:id": "33366", "highway": "bus_stop", "name": "Dolingadreef", "public_transport": "platform", "shelter": "yes", "tactile_paving": "yes", "zone": "5725"}}, {"type": "node", "id": 1734152499, "lat": 52.3246662, "lon": 4.9597679, "tags": {"cxx:code": "57254030", "cxx:id": "33407", "highway": "bus_stop", "name": "Echtenstein", "public_transport": "platform", "shelter": "yes", "zone": "5725"}}, {"type": "node", "id": 1734152536, "lat": 52.3111624, "lon": 4.9851846, "tags": {"bus": "yes", "highway": "bus_stop", "name": "Gaasperplasstation", "public_transport": "platform", "zone": "5725"}}, {"type": "node", "id": 1734152540, "lat": 52.3112239, "lon": 4.9851131, "tags": {"bench": "no", "bin": "no", "bus": "yes", "highway": "bus_stop", "name": "Gaasperplasstation", "public_transport": "platform", "shelter": "no", "zone": "5725"}}, {"type": "node", "id": 1734152545, "lat": 52.3112683, "lon": 4.9851095, "tags": {"bus": "yes", "highway": "bus_stop", "name": "Gaasperplasstation", "public_transport": "platform", "zone": "5725"}}, {"type": "node", "id": 1734152553, "lat": 52.3113187, "lon": 4.9851092, "tags": {"bus": "yes", "highway": "bus_stop", "name": "Gaasperplasstation", "public_transport": "platform", "zone": "5725"}}, {"type": "node", "id": 1771269567, "lat": 52.360442, "lon": 4.7914956, "tags": {"bus": "yes", "highway": "bus_stop", "name": "Saaftingestraat", "public_transport": "platform", "shelter": "yes"}}, {"type": "node", "id": 1771269589, "lat": 52.3599457, "lon": 4.7897669, "tags": {"bus": "yes", "highway": "bus_stop", "name": "Saaftingestraat", "public_transport": "platform", "shelter": "yes"}}, {"type": "node", "id": 1799280536, "lat": 52.3848961, "lon": 4.883403, "tags": {"bench": "yes", "bin": "yes", "bus": "yes", "highway": "bus_stop", "lit": "yes", "name": "Haarlemmerplein", "public_transport": "platform", "ref:IFOPT": "NL:Q:30002114", "shelter": "yes", "tactile_paving": "yes", "wheelchair": "yes", "zone": "5700"}}, {"type": "node", "id": 1976392166, "lat": 52.3616216, "lon": 4.9241919, "tags": {"bench": "yes", "bin": "yes", "bus": "yes", "highway": "bus_stop", "lit": "yes", "name": "Eerste Van Swindenstraat", "public_transport": "platform", "shelter": "yes", "tactile_paving": "yes", "wheelchair": "yes"}}, {"type": "node", "id": 1990848976, "lat": 52.3586326, "lon": 4.8080114, "tags": {"bench": "yes", "bus": "yes", "highway": "bus_stop", "name": "Osdorpplein Oost", "public_transport": "platform", "shelter": "yes", "wheelchair": "yes"}}, {"type": "node", "id": 1992119689, "lat": 52.3583449, "lon": 4.8003057, "tags": {"bus": "yes", "highway": "bus_stop", "name": "Hoekenes", "public_transport": "platform", "wheelchair": "yes"}}, {"type": "node", "id": 1992119712, "lat": 52.3582122, "lon": 4.8007643, "tags": {"bus": "yes", "highway": "bus_stop", "name": "Hoekenes", "public_transport": "platform", "wheelchair": "yes"}}, {"type": "node", "id": 1998738639, "lat": 52.3450218, "lon": 4.8073179, "tags": {"bench": "yes", "bus": "yes", "covered": "yes", "highway": "bus_stop", "name": "Brusselsingel", "public_transport": "platform", "shelter": "yes", "wheelchair": "yes"}}, {"type": "node", "id": 1998738701, "lat": 52.3448649, "lon": 4.8073126, "tags": {"bench": "yes", "bus": "yes", "covered": "yes", "highway": "bus_stop", "name": "Brusselsingel", "public_transport": "platform", "shelter": "yes", "wheelchair": "yes"}}, {"type": "node", "id": 1998738710, "lat": 52.3444766, "lon": 4.8113009, "tags": {"bench": "yes", "bus": "yes", "covered": "yes", "highway": "bus_stop", "name": "Belgi\u00ebplein", "operator": "GVB", "public_transport": "platform", "shelter": "yes", "surface": "paved", "wheelchair": "yes", "zone": "5723"}}, {"type": "node", "id": 2001416179, "lat": 52.3540108, "lon": 4.957461, "tags": {"bench": "yes", "bus": "yes", "highway": "bus_stop", "name": "Science Park Terra", "public_transport": "platform", "ref:IFOPT": "NL:Q:30000507", "shelter": "yes", "zone": "5715"}},