{"version": 0.6, "generator": "Overpass API 0.7.61.5 4133829e", "osm3s": {"timestamp_osm_base": "2023-11-21T23:05:10Z", "copyright": "The data included in this document is from www.openstreetmap.org. The data is made available under ODbL."}, "elements": [{"type": "node", "id": 25711366, "lat": 52.3869692, "lon": 9.723539, "tags": {"bus": "yes", "highway": "bus_stop", "mapillary": "106241674859952", "name": "Kopernikusstra\u00dfe", "network": "Gro\u00dfraum-Verkehr Hannover", "public_transport": "stop_position", "ref:IFOPT": "de:03241:221", "shelter": "yes", "survey:date": "2018-06-10", "wheelchair": "yes"}}, {"type": "node", "id": 25711369, "lat": 52.3822543, "lon": 9.7255536, "tags": {"bus": "yes", "highway": "bus_stop", "name": "Christuskirche", "operator": "\u00dcSTRA Hannoversche Verkehrsbetriebe AG", "public_transport": "stop_position", "ref:IFOPT": "de:03241:211:3"}}, {"type": "node", "id": 28478065, "lat": 52.3610555, "lon": 9.8266303, "tags": {"bus": "yes", "highway": "bus_stop", "name": "Gro\u00dfer Hillen", "network": "Gro\u00dfraum-Verkehr Hannover", "public_transport": "stop_position", "ref:IFOPT": "de:03241:3071"}}, {"type": "node", "id": 30256746, "lat": 52.4403707, "lon": 9.7266237, "tags": {"bus": "yes", "highway": "bus_stop", "name": "Langenhagen/Bahnhof Mitte", "note": "note bitte lassen, bis alle Relationen gemappt sind. Abfahrt von 253 LGH Zentrum, 470 Flughafen, 480 LGH Zentrum", "public_transport": "stop_position", "ref:IFOPT": "de:03241:6631:2"}}, {"type": "node", "id": 31115526, "lat": 52.3610368, "lon": 9.7136177, "tags": {"bus": "yes", "highway": "bus_stop", "name": "Deisterplatz/Bornumer Stra\u00dfe", "name:etymology:wikidata": "Q47457067", "network": "Gro\u00dfraum-Verkehr Hannover", "public_transport": "stop_position", "wikidata": "Q98034985"}}, {"type": "node", "id": 33205531, "lat": 52.4285775, "lon": 9.7442495, "tags": {"bus": "yes", "highway": "bus_stop", "name": "Langenhagen/Klusriede", "network": "Gro\u00dfraum-Verkehr Hannover", "public_transport": "stop_position"}}, {"type": "node", "id": 33208530, "lat": 52.3910273, "lon": 9.7299797, "tags": {"bus": "yes", "highway": "bus_stop", "mapillary": "514974479867014", "name": "Voltastra\u00dfe", "network": "Gro\u00dfraum-Verkehr Hannover", "pole": "yes", "public_transport": "stop_position", "ref:IFOPT": "de:03241:411", "shelter": "no", "survey:date": "2018-04-25"}}, {"type": "node", "id": 33225310, "lat": 52.3780011, "lon": 9.7532256, "tags": {"bus": "yes", "highway": "bus_stop", "name": "Neues Haus", "network": "Gro\u00dfraum-Verkehr Hannover", "network:short": "GVH", "network:wikidata": "Q1549516", "network:wikipedia": "de:Gro\u00dfraum-Verkehr Hannover", "operator": "\u00dcSTRA Hannoversche Verkehrsbetriebe AG", "public_transport": "stop_position", "ref:IFOPT": "de:03241:2801:0", "wheelchair": "yes"}}, {"type": "node", "id": 33225316, "lat": 52.379697, "lon": 9.7540032, "tags": {"bus": "yes", "highway": "bus_stop", "name": "L\u00e4rchenstra\u00dfe", "network": "Gro\u00dfraum-Verkehr Hannover", "public_transport": "stop_position", "ref:IFOPT": "de:03241:2799:0", "ref_name": "L\u00e4rchenstra\u00dfe, Hannover", "wheelchair": "yes"}}, {"type": "node", "id": 33437870, "lat": 52.4295855, "lon": 9.7235429, "tags": {"bus": "yes", "highway": "bus_stop", "name": "Riedweg", "network": "Gro\u00dfraum-Verkehr Hannover", "public_transport": "stop_position"}}, {"type": "node", "id": 34037596, "lat": 52.3699661, "lon": 9.7059999, "tags": {"bus": "yes", "highway": "bus_stop", "name": "K\u00f6tnerholzweg", "network": "Gro\u00dfraum-Verkehr Hannover", "public_transport": "stop_position", "wheelchair": "yes"}}, {"type": "node", "id": 60335936, "lat": 52.3971969, "lon": 9.719949, "tags": {"bench": "yes", "bin": "yes", "bus": "yes", "highway": "bus_stop", "kerb": "raised", "kerb:approach_aid": "no", "name": "Voltmerstra\u00dfe", "network": "Gro\u00dfraum-Verkehr Hannover", "network:short": "GVH", "network:wikidata": "Q1549516", "network:wikipedia": "de:Gro\u00dfraum-Verkehr Hannover", "passenger_information_display": "no", "public_transport": "platform", "ref:IFOPT": "de:03241:378:0:378", "ref_name": "Voltmerstra\u00dfe, Hannover", "shelter": "yes", "source:geometry": "HiRes aerial imagery 2009", "tactile_paving": "yes", "wheelchair": "yes"}}, {"type": "node", "id": 60335949, "lat": 52.397599, "lon": 9.7237965, "tags": {"bench": "yes", "bin": "yes", "bus": "yes", "highway": "bus_stop", "kerb": "raised", "kerb:approach_aid": "no", "name": "Scheelenkamp", "network": "Gro\u00dfraum-Verkehr Hannover", "operator": "\u00dcSTRA Hannoversche Verkehrsbetriebe AG", "passenger_information_display": "no", "public_transport": "platform", "ref:IFOPT": "de:03241:380:0:380", "ref_name": "Scheelenkamp, Hannover", "shelter": "yes", "tactile_paving": "no"}}, {"type": "node", "id": 60975897, "lat": 52.3531676, "lon": 9.7218579, "tags": {"bus": "yes", "highway": "bus_stop", "name": "Bahnhof Linden/Fischerhof", "public_transport": "stop_position", "ref": "0846", "ref:IFOPT": "de:03241:841:4"}}, {"type": "node", "id": 64758005, "lat": 52.4007901, "lon": 9.693939, "tags": {"bench": "yes", "bin": "yes", "bus": "yes", "highway": "bus_stop", "kerb": "raised", "kerb:approach_aid": "no", "lit": "yes", "name": "Altenauer Weg", "name:etymology:wikidata": "Q436639", "network": "Gro\u00dfraum-Verkehr Hannover", "passenger_information_display": "no", "public_transport": "platform", "shelter": "yes", "tactile_paving": "no", "wikidata": "Q98398545"}}, {"type": "node", "id": 74927926, "lat": 52.3382119, "lon": 9.7692514, "tags": {"bus": "yes", "highway": "bus_stop", "name": "Peiner Stra\u00dfe", "network": "Gro\u00dfraum-Verkehr Hannover", "public_transport": "stop_position", "ref:IFOPT": "de:03241:1381", "wheelchair": "yes"}}, {"type": "node", "id": 93411847, "lat": 52.3716796, "lon": 9.8060035, "tags": {"bus": "yes", "highway": "bus_stop", "name": "Blumhardtstra\u00dfe", "network": "Gro\u00dfraum-Verkehr Hannover", "network:short": "GVH", "network:wikidata": "Q1549516", "public_transport": "stop_position", "ref:IFOPT": "de:03241:3231", "wheelchair": "yes"}}, {"type": "node", "id": 96131958, "lat": 52.3864123, "lon": 9.859312, "tags": {"bench": "yes", "bus": "yes", "covered": "yes", "highway": "bus_stop", "name": "St. Johanniskirche", "network": "Gro\u00dfraum-Verkehr Hannover", "note:de": "Richtung Meierwiesen", "operator": "\u00dcSTRA Hannoversche Verkehrsbetriebe AG", "public_transport": "stop_position", "ref_name": "Misburg/St. Johanniskirche", "shelter": "yes", "wheelchair": "yes"}}, {"type": "node", "id": 96131981, "lat": 52.3805524, "lon": 9.8624288, "tags": {"bench": "yes", "bin": "yes", "bus": "yes", "highway": "bus_stop", "lit": "yes", "name": "Kreisstra\u00dfe", "network": "Gro\u00dfraum-Verkehr Hannover", "note:de": "Richtung Buchholz", "operator": "\u00dcSTRA Hannoversche Verkehrsbetriebe AG", "passenger_information_display": "no", "public_transport": "platform", "shelter": "yes", "tactile_paving": "no"}}, {"type": "node", "id": 102068237, "lat": 52.3661952, "lon": 9.6997912, "tags": {"bus": "yes", "highway": "bus_stop", "name": "Bernhard-Caspar-Stra\u00dfe", "network": "Gro\u00dfraum-Verkehr Hannover", "operator": "infra Infrastrukturgesellschaft Region Hannover", "operator:wikidata": "Q1122564", "public_transport": "stop_position", "railway": "tram_stop", "ref:IFOPT": "de:03241:631:5", "tactile_paving": "no", "tram": "yes", "wheelchair": "no", "wheelchair:description": "Tiefbahnsteig"}}, {"type": "node", "id": 102068244, "lat": 52.3672032, "lon": 9.7093523, "tags": {"bus": "yes", "highway": "bus_stop", "name": "Nieschlagstra\u00dfe", "network": "Gro\u00dfraum-Verkehr Hannover", "network:short": "GVH", "network:wikidata": "Q1549516", "network:wikipedia": "de:Gro\u00dfraum-Verkehr Hannover", "operator": "infra Infrastrukturgesellschaft Region Hannover", "operator:wikidata": "Q1122564", "public_transport": "stop_position", "railway": "tram_stop", "ref:IFOPT": "de:03241:623:1", "tram": "yes", "wheelchair": "no", "wheelchair:description": "Tiefbahnsteig"}}, {"type": "node", "id": 121717770, "lat": 52.4059752, "lon": 9.8005584, "tags": {"bus": "yes", "highway": "bus_stop", "mapillary": "483345649758893", "name": "Noltemeyerbr\u00fccke", "network": "Gro\u00dfraum-Verkehr Hannover", "network:short": "GVH", "network:wikidata": "Q1549516", "network:wikipedia": "de:Gro\u00dfraum-Verkehr Hannover", "operator": "infra Infrastrukturgesellschaft Region Hannover", "public_transport": "stop_position", "ref:IFOPT": "de:03241:2171", "route_ref": "123", "shelter": "yes", "survey:date": "2018-08-01"}}, {"type": "node", "id": 155232778, "lat": 52.3172463, "lon": 9.8218017, "tags": {"bus": "yes", "highway": "bus_stop", "name": "Hannover Boulevard de Montr\u00e9al", "network": "Gro\u00dfraum-Verkehr Hannover", "network:short": "GVH", "network:wikidata": "Q1549516", "network:wikipedia": "de:Gro\u00dfraum-Verkehr Hannover", "public_transport": "stop_position", "wheelchair": "limited"}}, {"type": "node", "id": 175625810, "lat": 52.3873475, "lon": 9.8376998, "tags": {"bus": "yes", "highway": "bus_stop", "name": "Zum Brookland", "network": "Gro\u00dfraum-Verkehr Hannover", "network:short": "GVH", "network:wikidata": "Q1549516", "operator": "\u00dcSTRA Hannoversche Verkehrsbetriebe AG", "public_transport": "stop_position", "ref_name": "Misburg/Zum Brookland", "wheelchair": "yes"}}, {"type": "node", "id": 175625837, "lat": 52.389792, "lon": 9.8530247, "tags": {"bus": "yes", "highway": "bus_stop", "name": "Meyers Garten", "network": "Gro\u00dfraum-Verkehr Hannover", "network:short": "GVH", "network:wikidata": "Q1549516", "operator": "\u00dcSTRA Hannoversche Verkehrsbetriebe AG", "public_transport": "stop_position", "ref_name": "Misburg/Meyers Garten", "wheelchair": "yes"}}, {"type": "node", "id": 201559897, "lat": 52.4058282, "lon": 9.8001567, "tags": {"bus": "yes", "highway": "bus_stop", "name": "Noltemeyerbr\u00fccke", "network": "Gro\u00dfraum-Verkehr Hannover", "network:short": "GVH", "network:wikidata": "Q1549516", "network:wikipedia": "de:Gro\u00dfraum-Verkehr Hannover", "operator": "infra Infrastrukturgesellschaft Region Hannover", "public_transport": "stop_position", "shelter": "yes", "wheelchair": "yes"}}, {"type": "node", "id": 206878890, "lat": 52.3603229, "lon": 9.7640129, "tags": {"bench": "yes", "bin": "yes", "bus": "yes", "covered": "no", "highway": "bus_stop", "lit": "yes", "name": "Heinrich-Heine-Stra\u00dfe", "network": "Gro\u00dfraum-Verkehr Hannover", "passenger_information_display": "yes", "public_transport": "platform", "ref": "1131", "ref_name": "Heinrich-Heine-Stra\u00dfe, Hannover", "shelter": "yes", "tactile_paving": "no", "wheelchair": "no"}}, {"type": "node", "id": 243458883, "lat": 52.3901296, "lon": 9.8194839, "tags": {"bench": "yes", "bin": "yes", "bus": "yes", "highway": "bus_stop", "lit": "yes", "name": "Roderbruch", "network": "Gro\u00dfraum-Verkehr Hannover", "network:short": "GVH", "network:wikidata": "Q1549516", "operator": "\u00dcSTRA Hannoversche Verkehrsbetriebe AG", "public_transport": "platform", "shelter": "yes", "tactile_paving": "no", "wheelchair": "yes"}}, {"type": "node", "id": 246523695, "lat": 52.3199184, "lon": 9.7483158, "tags": {"bus": "yes", "highway": "bus_stop", "name": "Hemmingen/Kapellenweg", "network": "Gro\u00dfraum-Verkehr Hannover", "network:short": "GVH", "network:wikidata": "Q1549516", "public_transport": "stop_position"}}, {"type": "node", "id": 249235174, "lat": 52.3720232, "lon": 9.662397, "tags": {"bus": "yes", "highway": "bus_stop", "mapillary": "1922507911259303", "name": "Schnepfenweg", "network": "Gro\u00dfraum-Verkehr Hannover", "public_transport": "stop_position", "shelter": "yes", "survey:date": "2018-03-30", "wheelchair": "yes"}}, {"type": "node", "id": 250662165, "lat": 52.3754163, "lon": 9.6951918, "tags": {"bus": "yes", "highway": "bus_stop", "name": "Wunstorfer Stra\u00dfe", "network": "Gro\u00dfraum-Verkehr Hannover", "network:short": "GVH", "network:wikidata": "Q1549516", "public_transport": "stop_position", "ref:IFOPT": "de:03241:485", "shelter": "no", "wheelchair": "yes"}}, {"type": "node", "id": 250800145, "lat": 52.3732656, "lon": 9.6674238, "tags": {"bus": "yes", "highway": "bus_stop", "name": "In der Steinbreite", "network": "Gro\u00dfraum-Verkehr Hannover", "network:short": "GVH", "network:wikidata": "Q1549516", "public_transport": "stop_position", "wheelchair": "yes"}}, {"type": "node", "id": 251118669, "lat": 52.35914, "lon": 9.7328997, "tags": {"bus": "yes", "highway": "bus_stop", "name": "Stadionbad", "public_transport": "stop_position", "ref:IFOPT": "de:03241:901:0"}}, {"type": "node", "id": 251692781, "lat": 52.3609825, "lon": 9.8586338, "tags": {"bench": "no", "bin": "yes", "bus": "yes", "highway": "bus_stop", "lit": "yes", "name": "Ostergrube", "network": "Gro\u00dfraum-Verkehr Hannover", "network:short": "GVH", "network:wikidata": "Q1549516", "operator": "\u00dcSTRA Hannoversche Verkehrsbetriebe AG", "passenger_information_display": "no", "public_transport": "platform", "shelter": "no", "tactile_paving": "no", "wheelchair": "yes"}}, {"type": "node", "id": 251849270, "lat": 52.358421, "lon": 9.8587301, "tags": {"bench": "yes", "bin": "yes", "bus": "yes", "description": "Ankunft", "highway": "bus_stop", "lit": "yes", "name": "Anderten", "network": "Gro\u00dfraum-Verkehr Hannover", "operator": "\u00dcSTRA Hannoversche Verkehrsbetriebe AG", "public_transport": "platform", "ref_name": "Anderten", "shelter": "yes", "tactile_paving": "yes", "wheelchair": "yes"}}, {"type": "node", "id": 251849324, "lat": 52.3629899, "lon": 9.8599969, "tags": {"bus": "yes", "highway": "bus_stop", "name": "Im Wiesenhof", "network": "Gro\u00dfraum-Verkehr Hannover", "network:short": "GVH", "network:wikidata": "Q1549516", "operator": "\u00dcSTRA Hannoversche Verkehrsbetriebe AG", "public_transport": "stop_position", "ref_name": "Anderten/Im Wiesenhof", "wheelchair": "yes"}}, {"type": "node", "id": 251849334, "lat": 52.3667159, "lon": 9.8571251, "tags": {"bus": "yes", "highway": "bus_stop", "name": "Am Kindergarten", "network": "Gro\u00dfraum-Verkehr Hannover", "operator": "\u00dcSTRA Hannoversche Verkehrsbetriebe AG", "public_transport": "stop_position", "ref_name": "Anderten/Am Kindergarten", "wheelchair": "yes"}}, {"type": "node", "id": 251849336, "lat": 52.3685243, "lon": 9.8610963, "tags": {"bench": "yes", "bin": "yes", "bus": "yes", "highway": "bus_stop", "lit": "yes", "name": "Bahnhof Anderten-Misburg", "network": "Gro\u00dfraum-Verkehr Hannover", "operator": "\u00dcSTRA Hannoversche Verkehrsbetriebe AG", "passenger_information_display": "no", "public_transport": "platform", "shelter": "yes", "tactile_paving": "no", "wheelchair": "yes"}}, {"type": "node", "id": 255681983, "lat": 52.3737716, "lon": 9.7065342, "tags": {"bus": "yes", "highway": "bus_stop", "name": "Leinaustra\u00dfe", "network": "Gro\u00dfraum-Verkehr Hannover", "public_transport": "stop_position", "ref:IFOPT": "de:03241:481", "tactile_paving": "no", "wheelchair": "no"}}, {"type": "node", "id": 256225489, "lat": 52.4033567, "lon": 9.7480003, "tags": {"bus": "yes", "highway": "bus_stop", "name": "Nordring", "network": "Gro\u00dfraum-Verkehr Hannover", "network:short": "GVH", "network:wikidata": "Q1549516", "network:wikipedia": "de:Gro\u00dfraum-Verkehr Hannover", "operator": "\u00dcSTRA", "public_transport": "stop_position", "shelter": "no", "wheelchair": "yes"}}, {"type": "node", "id": 256345530, "lat": 52.3709038, "lon": 9.7152499, "tags": {"bus": "yes", "highway": "bus_stop", "name": "Am K\u00fcchengarten", "network": "Gro\u00dfraum-Verkehr Hannover", "network:short": "GVH", "network:wikidata": "Q1549516", "network:wikipedia": "de:Gro\u00dfraum-Verkehr Hannover", "public_transport": "stop_position", "ref:IFOPT": "de:03241:469", "wheelchair": "yes"}}, {"type": "node", "id": 256573106, "lat": 52.3700876, "lon": 9.6654284, "tags": {"bus": "yes", "highway": "bus_stop", "name": "Rebhuhnfeld", "network": "Gro\u00dfraum-Verkehr Hannover", "public_transport": "stop_position", "wheelchair": "yes"}}, {"type": "node", "id": 256573126, "lat": 52.3668956, "lon": 9.6637468, "tags": {"bus": "yes", "highway": "bus_stop", "name": "Doggerweg", "network": "Gro\u00dfraum-Verkehr Hannover", "network:short": "GVH", "network:wikidata": "Q1549516", "public_transport": "stop_position", "wheelchair": "yes"}}, {"type": "node", "id": 256838668, "lat": 52.3532008, "lon": 9.7220788, "tags": {"bus": "yes", "highway": "bus_stop", "mapillary": "213391870324717", "name": "Bahnhof Linden/Fischerhof", "pole": "yes", "public_transport": "stop_position", "ref:IFOPT": "de:03241:841:3", "shelter": "no", "survey:date": "2018-01-12"}}, {"type": "node", "id": 256859960, "lat": 52.4040293, "lon": 9.7427359, "tags": {"bus": "yes", "highway": "bus_stop", "name": "Gradestra\u00dfe", "network": "Gro\u00dfraum-Verkehr Hannover", "network:short": "GVH", "network:wikidata": "Q1549516", "network:wikipedia": "de:Gro\u00dfraum-Verkehr Hannover", "public_transport": "stop_position"}}, {"type": "node", "id": 261046055, "lat": 52.3600844, "lon": 9.7644863, "tags": {"bench": "yes", "bin": "yes", "bus": "yes", "highway": "bus_stop", "lit": "yes", "name": "Heinrich-Heine-Stra\u00dfe", "network": "Gro\u00dfraum-Verkehr Hannover", "public_transport": "platform", "ref_name": "Heinrich-Heine-Stra\u00dfe, Hannover", "shelter": "yes", "tactile_paving": "no", "wheelchair": "no"}}, {"type": "node", "id": 262655597, "lat": 52.3553114, "lon": 9.7179434, "tags": {"bus": "yes", "highway": "bus_stop", "name": "G\u00f6ttinger Stra\u00dfe", "network": "Gro\u00dfraum-Verkehr Hannover", "network:short": "GVH", "network:wikidata": "Q1549516", "public_transport": "stop_position", "shelter": "yes"}}, {"type": "node", "id": 264048312, "lat": 52.3944959, "lon": 9.6392309, "tags": {"bench": "yes", "bin": "yes", "bus": "yes", "highway": "bus_stop", "lit": "yes", "name": "Letter Bahnhof, Seelze", "network": "Gro\u00dfraum-Verkehr Hannover", "network:short": "GVH", "network:wikidata": "Q1549516", "network:wikipedia": "de:Gro\u00dfraum-Verkehr Hannover", "passenger_information_display": "yes", "public_transport": "platform", "shelter": "yes", "tactile_paving": "no"}}, {"type": "node", "id": 265546901, "lat": 52.3737757, "lon": 9.7424169, "tags": {"bench": "yes", "bin": "yes", "bus": "yes", "covered": "no", "highway": "bus_stop", "lit": "yes", "name": "Kr\u00f6pcke / Theaterstra\u00dfe", "network": "Gro\u00dfraum-Verkehr Hannover", "passenger_information_display": "no", "public_transport": "platform", "ref:IFOPT": "de:03241:1:1:1", "shelter": "yes", "tactile_paving": "no", "wheelchair": "limited"}}, {"type": "node", "id": 266040079, "lat": 52.3672192, "lon": 9.7182075, "tags": {"bench": "no", "bin": "yes", "bus": "yes", "highway": "bus_stop", "lit": "no", "name": "Schwarzer B\u00e4r", "network": "Gro\u00dfraum-Verkehr Hannover", "network:short": "GVH", "network:wikidata": "Q1549516", "public_transport": "platform", "shelter": "no", "tactile_paving": "no", "wheelchair": "yes"}}, {"type": "node", "id": 266644135, "lat": 52.412082, "lon": 9.8075245, "tags": {"bus": "yes", "highway": "bus_stop", "name": "Luise-Blume-Stra\u00dfe", "network": "Gro\u00dfraum-Verkehr Hannover", "network:short": "GVH", "network:wikidata": "Q1549516", "network:wikipedia": "de:Gro\u00dfraum-Verkehr Hannover", "public_transport": "stop_position"}}, {"type": "node", "id": 267092124, "lat": 52.3758149, "lon": 9.7208498, "tags": {"bus": "yes", "highway": "bus_stop", "mapillary": "469551860922991", "name": "Gerberstra\u00dfe", "network": "Gro\u00dfraum-Verkehr Hannover", "network:short": "GVH", "network:wikidata": "Q1549516", "network:wikipedia": "de:Gro\u00dfraum-Verkehr Hannover", "pole": "yes", "public_transport": "stop_position", "ref:IFOPT": "de:03241:165:0", "shelter": "no", "survey:date": "2018-03-30"}}, {"type": "node", "id": 268128205, "lat": 52.4030659, "lon": 9.8013252, "tags": {"bus": "yes", "highway": "bus_stop", "mapillary": "496306758222250", "name": "Bussestra\u00dfe", "network": "Gro\u00dfraum-Verkehr Hannover", "public_transport": "stop_position", "ref:IFOPT": "de:03241:2413", "shelter": "yes", "survey:date": "2018-05-27", "wheelchair": "yes"}}, {"type": "node", "id": 268647444, "lat": 52.3990739, "lon": 9.8039928, "tags": {"bus": "yes", "highway": "bus_stop", "mapillary": "289462712907773", "name": "Gro\u00df-Buchholzer Stra\u00dfe", "network": "Gro\u00dfraum-Verkehr Hannover", "network:short": "GVH", "network:wikidata": "Q1549516", "network:wikipedia": "de:Gro\u00dfraum-Verkehr Hannover", "pole": "yes", "public_transport": "stop_position", "ref:IFOPT": "de:03241:2401", "shelter": "no", "survey:date": "2018-08-01", "tactile_paving": "no", "wheelchair": "yes"}}, {"type": "node", "id": 270908975, "lat": 52.396786, "lon": 9.6480108, "tags": {"bench": "yes", "bin": "yes", "bus": "yes", "highway": "bus_stop", "lit": "yes", "name": "Letter/Kurze Wanne", "network": "Gro\u00dfraum-Verkehr Hannover", "old_name": "Letter / Dorfkrug", "public_transport": "platform", "shelter": "yes", "tactile_paving": "no"}}, {"type": "node", "id": 273106355, "lat": 52.4366307, "lon": 9.7541705, "tags": {"bus": "yes", "highway": "bus_stop", "name": "Langenhagen", "network": "Gro\u00dfraum-Verkehr Hannover", "public_transport": "stop_position"}}, {"type": "node", "id": 276373560, "lat": 52.3784192, "lon": 9.757936, "tags": {"bench": "yes", "bin": "yes", "bus": "yes", "highway": "bus_stop", "lit": "yes", "name": "Friedenstra\u00dfe", "network": "Gro\u00dfraum-Verkehr Hannover", "passenger_information_display": "no", "public_transport": "platform", "route_ref": "128;134", "shelter": "yes", "tactile_paving": "no", "wheelchair": "yes"}}, {"type": "node", "id": 276373714, "lat": 52.3781788, "lon": 9.7577622, "tags": {"bench": "no", "bin": "yes", "bus": "yes", "highway": "bus_stop", "lit": "no", "name": "Friedenstra\u00dfe", "network": "Gro\u00dfraum-Verkehr Hannover", "passenger_information_display": "no", "public_transport": "platform", "route_ref": "128;134", "shelter": "no", "tactile_paving": "no", "wheelchair": "yes"}}, {"type": "node", "id": 276918620, "lat": 52.3503671, "lon": 9.723066, "tags": {"bus": "yes", "highway": "bus_stop", "mapillary": "4130465577018419", "name": "August-Holweg-Platz", "network": "Gro\u00dfraum-Verkehr Hannover", "network:short": "GVH", "network:wikidata": "Q1549516", "public_transport": "stop_position", "ref:IFOPT": "de:03241:941:1:942", "ref_name": "August-Holweg-Platz, Hannover", "shelter": "yes", "survey:date": "2018-11-03", "wheelchair": "yes"}}, {"type": "node", "id": 277070533, "lat": 52.4046937, "lon": 9.6460636, "tags": {"bench": "yes", "bin": "yes", "bus": "yes", "highway": "bus_stop", "lit": "yes", "name": "Letter/Sch\u00e4ferweg", "public_transport": "platform", "shelter": "yes", "tactile_paving": "no"}}, {"type": "node", "id": 277072014, "lat": 52.4017397, "lon": 9.6463824, "tags": {"bench": "yes", "bin": "yes", "bus": "yes", "highway": "bus_stop", "lit": "yes", "name": "Letter/Windeler Stra\u00dfe", "network": "GVH", "note": "track, please", "public_transport": "platform", "shelter": "yes", "tactile_paving": "no", "wheelchair": "no"}}, {"type": "node", "id": 279833441, "lat": 52.3140119, "lon": 9.8181544, "tags": {"bus": "yes", "highway": "bus_stop", "name": "Hannover Stra\u00dfe der Nationen", "network": "Gro\u00dfraum-Verkehr Hannover", "network:short": "GVH", "network:wikidata": "Q1549516", "network:wikipedia": "de:Gro\u00dfraum-Verkehr Hannover", "public_transport": "stop_position"}}, {"type": "node", "id": 279833442, "lat": 52.3139434, "lon": 9.8216137, "tags": {"bus": "yes", "highway": "bus_stop", "name": "Chicago Lane", "network": "Gro\u00dfraum-Verkehr Hannover", "public_transport": "stop_position"}}, {"type": "node", "id": 280982625, "lat": 52.4322262, "lon": 9.7326888, "tags": {"bench": "no", "bus": "yes", "departures_board": "timetable", "highway": "bus_stop", "name": "Langenhagen/Beckerwiese", "network": "Gro\u00dfraum-Verkehr Hannover", "network:short": "GVH", "network:wikidata": "Q1549516", "public_transport": "platform", "route_ref": "610;611;616", "shelter": "no", "tactile_paving": "no"}}, {"type": "node", "id": 280982626, "lat": 52.4323213, "lon": 9.732363, "tags": {"bench": "no", "bus": "yes", "departures_board": "timetable", "highway": "bus_stop", "name": "Langenhagen/Beckerwiese", "network": "Gro\u00dfraum-Verkehr Hannover", "network:short": "GVH", "network:wikidata": "Q1549516", "public_transport": "platform", "route_ref": "610;611;616", "shelter": "no", "tactile_paving": "no"}}, {"type": "node", "id": 280986256, "lat": 52.432271, "lon": 9.7370352, "tags": {"bench": "no", "bus": "yes", "departures_board": "timetable", "highway": "bus_stop", "name": "Langenhagen/Sollingweg", "network": "Gro\u00dfraum-Verkehr Hannover", "network:short": "GVH", "network:wikidata": "Q1549516", "public_transport": "platform", "route_ref": "610;611;616", "shelter": "no", "tactile_paving": "no"}}, {"type": "node", "id": 280986257, "lat": 52.432284, "lon": 9.7376494, "tags": {"bench": "no", "bus": "yes", "departures_board": "timetable", "highway": "bus_stop", "name": "Langenhagen/Sollingweg", "network": "Gro\u00dfraum-Verkehr Hannover", "network:short": "GVH", "network:wikidata": "Q1549516", "public_transport": "platform", "route_ref": "610;611;616", "shelter": "no", "tactile_paving": "no"}}, {"type": "node", "id": 280986261, "lat": 52.4330885, "lon": 9.7423556, "tags": {"bench": "no", "bus": "yes", "departures_board": "timetable", "highway": "bus_stop", "name": "Langenhagen/Masurenweg", "network": "Gro\u00dfraum-Verkehr Hannover", "network:short": "GVH", "network:wikidata": "Q1549516", "public_transport": "platform", "route_ref": "610;611;616", "shelter": "no", "tactile_paving": "no"}}, {"type": "node", "id": 280986262, "lat": 52.4330644, "lon": 9.7426282, "tags": {"bench": "no", "bus": "yes", "departures_board": "timetable", "highway": "bus_stop", "name": "Langenhagen/Masurenweg", "network": "Gro\u00dfraum-Verkehr Hannover", "network:short": "GVH", "network:wikidata": "Q1549516", "public_transport": "platform", "route_ref": "610;611;616", "shelter": "no", "tactile_paving": "no"}}, {"type": "node", "id": 280986269, "lat": 52.4346882, "lon": 9.7533543, "tags": {"bench": "no", "bus": "yes", "departures_board": "timetable", "highway": "bus_stop", "kerb": "raised", "kerb:approach_aid": "no", "name": "Langenhagen/Elbeweg", "network": "Gro\u00dfraum-Verkehr Hannover", "network:short": "GVH", "network:wikidata": "Q1549516", "passenger_information_display": "no", "public_transport": "platform", "shelter": "no", "tactile_paving": "no"}}, {"type": "node", "id": 280986270, "lat": 52.434773, "lon": 9.7531483, "tags": {"bench": "no", "bus": "yes", "departures_board": "timetable", "highway": "bus_stop", "kerb": "raised", "kerb:approach_aid": "no", "name": "Langenhagen/Elbeweg", "network": "Gro\u00dfraum-Verkehr Hannover", "network:short": "GVH", "network:wikidata": "Q1549516", "passenger_information_display": "no", "public_transport": "platform", "shelter": "no", "tactile_paving": "no"}}, {"type": "node", "id": 280986283, "lat": 52.4353977, "lon": 9.7567439, "tags": {"bench": "yes", "bin": "yes", "bus": "yes", "check_date:shelter": "2021-04-10", "highway": "bus_stop", "lit": "yes", "name": "Langenhagen Paracelsusklinik", "network": "GVH", "shelter": "yes", "tactile_paving": "no", "wheelchair": "yes"}}, {"type": "node", "id": 280986285, "lat": 52.4348327, "lon": 9.7570837, "tags": {"bench": "yes", "bin": "yes", "bus": "yes", "check_date:shelter": "2022-05-23", "highway": "bus_stop", "kerb": "raised", "kerb:approach_aid": "no", "lit": "no", "name": "Langenhagen Paracelsusklinik", "network": "Gro\u00dfraum-Verkehr Hannover", "network:short": "GVH", "network:wikidata": "Q1549516", "passenger_information_display": "no", "public_transport": "platform", "shelter": "yes", "tactile_paving": "no", "wheelchair": "yes"}}, {"type": "node", "id": 280990416, "lat": 52.4328336, "lon": 9.7538772, "tags": {"bench": "no", "bus": "yes", "departures_board": "timetable", "highway": "bus_stop", "name": "Langenhage/Erich-Ollenhauer-Stra\u00dfe", "network": "Gro\u00dfraum-Verkehr Hannover", "network:short": "GVH", "network:wikidata": "Q1549516", "public_transport": "platform", "route_ref": "616", "shelter": "no", "tactile_paving": "no"}}, {"type": "node", "id": 280990417, "lat": 52.4327774, "lon": 9.7539244, "tags": {"bench": "no", "bus": "yes", "departures_board": "timetable", "highway": "bus_stop", "name": "Langenhage/Erich-Ollenhauer-Stra\u00dfe", "network": "Gro\u00dfraum-Verkehr Hannover", "network:short": "GVH", "network:wikidata": "Q1549516", "public_transport": "platform", "route_ref": "616", "shelter": "no", "tactile_paving": "no"}}, {"type": "node", "id": 287024073, "lat": 52.403778, "lon": 9.6390923, "tags": {"bench": "yes", "bus": "yes", "highway": "bus_stop", "name": "Letter / Gymnasium", "network": "Gro\u00dfraum-Verkehr Hannover", "public_transport": "platform", "shelter": "yes", "tactile_paving": "no", "toilets:wheelchair": "no", "wheelchair": "yes"}}, {"type": "node", "id": 290891189, "lat": 52.3797477, "lon": 9.7613112, "tags": {"bench": "yes", "bin": "yes", "bus": "yes", "highway": "bus_stop", "lit": "yes", "name": "Kaiserallee", "network": "Gro\u00dfraum-Verkehr Hannover", "passenger_information_display": "no", "public_transport": "platform", "shelter": "yes", "tactile_paving": "no", "wheelchair": "limited"}}, {"type": "node", "id": 290891293, "lat": 52.3798377, "lon": 9.7619005, "tags": {"bench": "no", "bin": "yes", "bus": "yes", "highway": "bus_stop", "lit": "yes", "name": "Kaiserallee", "network": "Gro\u00dfraum-Verkehr Hannover", "passenger_information_display": "no", "public_transport": "platform", "shelter": "no", "tactile_paving": "no", "wheelchair": "no"}}, {"type": "node", "id": 290891466, "lat": 52.3815318, "lon": 9.765987, "tags": {"bench": "yes", "bin": "yes", "bus": "yes", "highway": "bus_stop", "lit": "yes", "name": "Zoo", "network": "Gro\u00dfraum-Verkehr Hannover", "public_transport": "platform", "ref_name": "Zoo, Hannover", "shelter": "yes", "tactile_paving": "no", "wheelchair": "yes"}}, {"type": "node", "id": 290891491, "lat": 52.3814743, "lon": 9.7665418, "tags": {"bench": "no", "bin": "yes", "bus": "yes", "highway": "bus_stop", "lit": "no", "name": "Zoo", "network": "Gro\u00dfraum-Verkehr Hannover", "public_transport": "platform", "ref_name": "Zoo, Hannover", "shelter": "no", "tactile_paving": "yes", "wheelchair": "yes"}}, {"type": "node", "id": 290975699, "lat": 52.3468035, "lon": 9.6826044, "tags": {"bus": "yes", "highway": "bus_stop", "name": "Leuschnerstra\u00dfe", "network": "Gro\u00dfraum-Verkehr Hannover", "network:short": "GVH", "network:wikidata": "Q1549516", "public_transport": "stop_position"}}, {"type": "node", "id": 297679767, "lat": 52.3970069, "lon": 9.6473922, "tags": {"bench": "yes", "bin": "yes", "bus": "yes", "covered": "yes", "highway": "bus_stop", "lit": "yes", "name": "Letter/Kurze Wanne", "network": "Gro\u00dfraum-Verkehr Hannover", "old_name": "Letter / Dorfkrug", "public_transport": "platform", "shelter": "yes", "tactile_paving": "no"}}, {"type": "node", "id": 297926090, "lat": 52.3557737, "lon": 9.8272221, "tags": {"bus": "yes", "highway": "bus_stop", "name": "Sudetenstra\u00dfe", "network": "Gro\u00dfraum-Verkehr Hannover", "network:short": "GVH", "network:wikidata": "Q1549516", "public_transport": "stop_position", "ref:IFOPT": "de:03241:3131"}}, {"type": "node", "id": 301284922, "lat": 52.3240567, "lon": 9.7304403, "tags": {"bus": "yes", "highway": "bus_stop", "name": "Westerfeld/K\u00f6llnbrinkweg", "network": "GVH", "old_name": "Westerfeld", "public_transport": "stop_position"}}, {"type": "node", "id": 301284924, "lat": 52.3228696, "lon": 9.7265768, "tags": {"bus": "yes", "highway": "bus_stop", "name": "Westerfeld/Berliner Stra\u00dfe", "network": "GVH", "public_transport": "stop_position"}}, {"type": "node", "id": 302247929, "lat": 52.3622775, "lon": 9.7588643, "tags": {"bench": "yes", "bin": "yes", "bus": "yes", "covered": "no", "highway": "bus_stop", "lit": "no", "name": "St. Heinrich-Kirche", "network": "Gro\u00dfraum-Verkehr Hannover", "public_transport": "platform", "ref:IFOPT": "de:03241:1121:0:1121", "ref_name": "St. Heinrich-Kirche, Hannover", "shelter": "yes", "tactile_paving": "yes", "wheelchair": "yes"}}, {"type": "node", "id": 302247989, "lat": 52.3691305, "lon": 9.7539376, "tags": {"bench": "no", "bin": "yes", "bus": "yes", "covered": "no", "highway": "bus_stop", "lit": "no", "name": "Marienstra\u00dfe", "network": "Gro\u00dfraum-Verkehr Hannover", "passenger_information_display": "yes", "public_transport": "platform", "ref": "1041", "ref_name": "Marienstra\u00dfe, Hannover", "shelter": "no", "tactile_paving": "no", "wheelchair": "yes"}}, {"type": "node", "id": 302247990, "lat": 52.3701787, "lon": 9.7526417, "tags": {"bench": "yes", "bin": "yes", "bus": "yes", "highway": "bus_stop", "lit": "yes", "name": "Marienstra\u00dfe", "network": "Gro\u00dfraum-Verkehr Hannover", "public_transport": "platform", "ref_name": "Marienstra\u00dfe, Hannover", "shelter": "yes", "tactile_paving": "no", "wheelchair": "yes"}}, {"type": "node", "id": 302248127, "lat": 52.3671543, "lon": 9.7551884, "tags": {"bench": "yes", "bin": "yes", "bus": "yes", "covered": "no", "highway": "bus_stop", "lit": "yes", "name": "Lutherstra\u00dfe", "network": "Gro\u00dfraum-Verkehr Hannover", "passenger_information_display": "yes", "public_transport": "platform", "ref:IFOPT": "de:03241:1109:0:1109", "ref_name": "Lutherstra\u00dfe, Hannover", "shelter": "yes", "tactile_paving": "no", "wheelchair": "yes"}}, {"type": "node", "id": 302248173, "lat": 52.367496, "lon": 9.7547695, "tags": {"bench": "yes", "bin": "yes", "bus": "yes", "covered": "no", "highway": "bus_stop", "lit": "no", "name": "Lutherstra\u00dfe", "network": "Gro\u00dfraum-Verkehr Hannover", "passenger_information_display": "no", "public_transport": "platform", "ref:IFOPT": "de:03241:1109:0:1110", "ref_name": "Lutherstra\u00dfe, Hannover", "shelter": "yes", "tactile_paving": "no"}}, {"type": "node", "id": 302248174, "lat": 52.3651554, "lon": 9.756451, "tags": {"bench": "yes", "bin": "yes", "bus": "yes", "highway": "bus_stop", "lit": "yes", "name": "Stolzestra\u00dfe", "network": "Gro\u00dfraum-Verkehr Hannover", "public_transport": "platform", "ref:IFOPT": "de:03241:1111:0:1112", "ref_name": "Stolzestra\u00dfe, Hannover", "shelter": "yes", "tactile_paving": "yes", "wheelchair": "yes"}}, {"type": "node", "id": 302248215, "lat": 52.3655209, "lon": 9.7563658, "tags": {"bench": "yes", "bin": "yes", "bus": "yes", "covered": "no", "highway": "bus_stop", "lit": "yes", "name": "Stolzestra\u00dfe", "network": "Gro\u00dfraum-Verkehr Hannover", "passenger_information_display": "yes", "public_transport": "platform", "ref:IFOPT": "de:03241:1111:0:1111", "ref_name": "Stolzestra\u00dfe, Hannover", "shelter": "yes", "tactile_paving": "yes", "wheelchair": "yes"}}, {"type": "node", "id": 302248217, "lat": 52.3623138, "lon": 9.7586139, "tags": {"bench": "yes", "bin": "yes", "bus": "yes", "highway": "bus_stop", "lit": "no", "mapillary": "184396056888534", "name": "St. Heinrich-Kirche", "network": "Gro\u00dfraum-Verkehr Hannover", "public_transport": "platform", "ref:IFOPT": "de:03241:1121:0:1122", "ref_name": "St. Heinrich-Kirche, Hannover", "shelter": "yes", "survey:date": "2017-10-15", "tactile_paving": "yes", "wheelchair": "yes"}}, {"type": "node", "id": 302253140, "lat": 52.3730972, "lon": 9.7498234, "tags": {"bench": "yes", "bin": "yes", "bus": "yes", "covered": "no", "highway": "bus_stop", "lit": "yes", "name": "Lavesstra\u00dfe", "network": "Gro\u00dfraum-Verkehr Hannover", "network:short": "GVH", "network:wikidata": "Q1549516", "passenger_information_display": "yes", "public_transport": "platform", "ref": "0081", "ref_name": "Lavesstra\u00dfe, Hannover", "shelter": "yes", "tactile_paving": "yes"}}, {"type": "node", "id": 302253180, "lat": 52.3731189, "lon": 9.7495702, "tags": {"bench": "yes", "bin": "yes", "bus": "yes", "highway": "bus_stop", "lit": "yes", "name": "Lavesstra\u00dfe", "network": "Gro\u00dfraum-Verkehr Hannover", "passenger_information_display": "yes", "public_transport": "platform", "ref_name": "Lavesstra\u00dfe, Hannover", "shelter": "yes", "tactile_paving": "yes"}}, {"type": "node", "id": 302253184, "lat": 52.3747252, "lon": 9.744798, "tags": {"bench": "no", "bin": "no", "bus": "yes", "covered": "no", "highway": "bus_stop", "lit": "yes", "name": "Thielenplatz/Schauspielhaus", "network": "Gro\u00dfraum-Verkehr Hannover", "note": "Aktuell (2020-04-06) nur eine Ersatzhaltestelle.", "passenger_information_display": "no", "public_transport": "platform", "ref_name": "Thielenplatz/Schauspielhaus, Hannover", "route_ref": "128;134;100", "shelter": "no", "tactile_paving": "no", "wheelchair": "yes"}}, {"type": "node", "id": 302253196, "lat": 52.3757132, "lon": 9.7411466, "tags": {"bench": "no", "bin": "yes", "bus": "yes", "covered": "no", "description": "Ersatzhaltestelle", "highway": "bus_stop", "name": "Hauptbahnhof / Ernst-August-Platz", "network": "Gro\u00dfraum-Verkehr Hannover", "network:short": "GVH", "network:wikidata": "Q1549516", "network:wikipedia": "de:Gro\u00dfraum-Verkehr Hannover", "passenger_information_display": "no", "public_transport": "platform", "route_ref": "128;134;121", "shelter": "no", "tactile_paving": "no", "wheelchair": "limited"}}, {"type": "node", "id": 306616975, "lat": 52.4402661, "lon": 9.7268733, "tags": {"bus": "yes", "highway": "bus_stop", "name": "Langenhagen/Bahnhof Mitte", "network": "Gro\u00dfraum-Verkehr Hannover", "note": "note bitte lassen, bis alle Relationen gemappt sind. Abfahrt von 470 St\u00f6cken, 480 Garbsen", "public_transport": "stop_position", "ref:IFOPT": "de:03241:6631:1"}}, {"type": "node", "id": 309847829, "lat": 52.4037254, "lon": 9.6418763, "tags": {"bench": "yes", "bin": "yes", "bus": "yes", "highway": "bus_stop", "name": "Letter / Gymnasium", "network": "Gro\u00dfraum-Verkehr Hannover", "passenger_information_display": "no", "public_transport": "platform", "shelter": "yes", "tactile_paving": "no", "toilets:wheelchair": "no", "wheelchair": "yes"}}, {"type": "node", "id": 309848601, "lat": 52.4020456, "lon": 9.6461755, "tags": {"bench": "yes", "bin": "yes", "bus": "yes", "highway": "bus_stop", "name": "Letter/Windeler Stra\u00dfe", "network": "GVH", "note": "track, please", "public_transport": "platform", "shelter": "yes", "tactile_paving": "no", "wheelchair": "no"}}, {"type": "node", "id": 309849728, "lat": 52.3930063, "lon": 9.650303, "tags": {"bench": "yes", "bin": "yes", "bus": "yes", "highway": "bus_stop", "lit": "yes", "name": "Letter/Kl\u00f6cknerstra\u00dfe", "network": "Gro\u00dfraum-Verkehr Hannover", "network:short": "GVH", "network:wikidata": "Q1549516", "network:wikipedia": "de:Gro\u00dfraum-Verkehr Hannover", "public_transport": "platform", "ref": "4576", "shelter": "yes", "tactile_paving": "no"}}, {"type": "node", "id": 309849736, "lat": 52.3933008, "lon": 9.6503932, "tags": {"bench": "yes", "bin": "yes", "bus": "yes", "highway": "bus_stop", "lit": "yes", "name": "Letter/Kl\u00f6cknerstra\u00dfe", "network": "Gro\u00dfraum-Verkehr Hannover", "network:short": "GVH", "network:wikidata": "Q1549516", "network:wikipedia": "de:Gro\u00dfraum-Verkehr Hannover", "public_transport": "platform", "ref:IFOPT": "de:03241:4575:1:4575", "shelter": "yes", "tactile_paving": "yes"}}, {"type": "node", "id": 309852210, "lat": 52.3772287, "lon": 9.6639511}, {"type": "node", "id": 312837480, "lat": 52.4028729, "lon": 9.7400832, "tags": {"bus": "yes", "highway": "bus_stop", "name": "Hirtenweg", "network": "Gro\u00dfraum-Verkehr Hannover", "network:short": "GVH", "network:wikidata": "Q1549516", "network:wikipedia": "de:Gro\u00dfraum-Verkehr Hannover", "public_transport": "stop_position"}}, {"type": "node", "id": 314416712, "lat": 52.4226027, "lon": 9.7861, "tags": {"bus": "yes", "highway": "bus_stop", "name": "Meierwiesen", "network": "Gro\u00dfraum-Verkehr Hannover", "operator": "GVH", "public_transport": "stop_position", "shelter": "yes", "wheelchair": "yes"}}, {"type": "node", "id": 314634961, "lat": 52.3781471, "lon": 9.7232838}, {"type": "node", "id": 316280022, "lat": 52.3695521, "lon": 9.7435843, "tags": {"bus": "yes", "highway": "bus_stop", "mapillary": "295858432081319", "name": "Aegidientorplatz", "network": "Gro\u00dfraum-Verkehr Hannover", "operator": "\u00dcstra Hannoversche Verkehrsbetriebe AG", "public_transport": "stop_position", "ref:IFOPT": "de:03241:101:6", "shelter": "yes", "survey:date": "2019-05-05", "tram": "no", "wheelchair": "yes"}}, {"type": "node", "id": 317431242, "lat": 52.3783831, "lon": 9.6266841, "tags": {"bench": "yes", "bus": "yes", "highway": "bus_stop", "name": "Harenberg / Bergfeld", "public_transport": "platform", "shelter": "yes", "wheelchair": "yes"}}, {"type": "node", "id": 317431303, "lat": 52.3784201, "lon": 9.6260358, "tags": {"bus": "yes", "highway": "bus_stop", "name": "Harenberg / Bergfeld", "network": "Gro\u00dfraum-Verkehr Hannover", "network:short": "GVH", "network:wikidata": "Q1549516", "network:wikipedia": "de:Gro\u00dfraum-Verkehr Hannover", "operator": "RegioBus", "public_transport": "platform", "shelter": "yes", "wheelchair": "yes"}}, {"type": "node", "id": 317431415, "lat": 52.3781278, "lon": 9.6237962, "tags": {"bus": "yes", "highway": "bus_stop", "name": "Harenberg/Mitte", "network": "GVH", "public_transport": "platform", "shelter": "yes", "tactile_paving": "yes"}}, {"type": "node", "id": 317431534, "lat": 52.3783228, "lon": 9.622313, "tags": {"bus": "yes", "highway": "bus_stop", "name": "Harenberg/Mitte", "network": "GVH", "public_transport": "platform", "shelter": "yes", "tactile_paving": "yes"}}, {"type": "node", "id": 317522965, "lat": 52.377192, "lon": 9.651535, "tags": {"bus": "yes", "highway": "bus_stop", "name": "Velber/Englischer Friedhof", "network": "Gro\u00dfraum-Verkehr Hannover", "public_transport": "platform", "wheelchair": "yes"}}, {"type": "node", "id": 317523024, "lat": 52.3769546, "lon": 9.6529995, "tags": {"bus": "yes", "highway": "bus_stop", "name": "Velber/Englischer Friedhof", "network": "Gro\u00dfraum-Verkehr Hannover", "public_transport": "platform", "shelter": "yes", "wheelchair": "yes"}}, {"type": "node", "id": 319870399, "lat": 52.3147227, "lon": 9.81779, "tags": {"bus": "yes", "highway": "bus_stop", "name": "Hannover Stra\u00dfe der Nationen", "network": "Gro\u00dfraum-Verkehr Hannover", "public_transport": "stop_position"}}, {"type": "node", "id": 320041176, "lat": 52.4383267, "lon": 9.7056021, "tags": {"bench": "yes", "bin": "yes", "bus": "yes", "highway": "bus_stop", "lit": "yes", "name": "Godshorn / Le-Trait-Platz", "network": "GVH", "shelter": "yes", "tactile_paving": "yes"}}, {"type": "node", "id": 320652549, "lat": 52.3252227, "lon": 9.743462, "tags": {"bus": "yes", "highway": "bus_stop", "name": "Hemmingen/B\u00f6rie", "network": "Gro\u00dfraum-Verkehr Hannover", "network:short": "GVH", "network:wikidata": "Q1549516", "public_transport": "stop_position", "wheelchair": "yes"}}, {"type": "node", "id": 322073472, "lat": 52.3209252, "lon": 9.7478616, "tags": {"bus": "yes", "highway": "bus_stop", "name": "Hemmingen/Kapellenweg", "network": "Gro\u00dfraum-Verkehr Hannover", "network:short": "GVH", "network:wikidata": "Q1549516", "public_transport": "stop_position"}}, {"type": "node", "id": 322073474, "lat": 52.3242478, "lon": 9.74652, "tags": {"bus": "yes", "highway": "bus_stop", "name": "Hemmingen/Dorfstra\u00dfe", "network": "Gro\u00dfraum-Verkehr Hannover", "network:short": "GVH", "network:wikidata": "Q1549516", "public_transport": "stop_position", "wheelchair": "yes"}}, {"type": "node", "id": 323941955, "lat": 52.4191255, "lon": 9.6514319, "tags": {"bus": "yes", "highway": "bus_stop", "mapillary": "343707320447387", "name": "Hansastra\u00dfe", "network": "Gro\u00dfraum-Verkehr Hannover", "network:short": "GVH", "network:wikidata": "Q1549516", "network:wikipedia": "de:Gro\u00dfraum-Verkehr Hannover", "public_transport": "stop_position", "shelter": "yes", "survey:date": "2017-05-24"}}, {"type": "node", "id": 324296003, "lat": 52.4102164, "lon": 9.763234, "tags": {"bench": "no", "bin": "yes", "bus": "yes", "highway": "bus_stop", "lit": "no", "name": "Sahlkamp", "network": "Gro\u00dfraum-Verkehr Hannover", "network:short": "GVH", "network:wikidata": "Q1549516", "network:wikipedia": "de:Gro\u00dfraum-Verkehr Hannover", "public_transport": "platform", "shelter": "no", "tactile_paving": "no", "wheelchair": "yes"}}, {"type": "node", "id": 324296005, "lat": 52.4102248, "lon": 9.7693129, "tags": {"bench": "yes", "bin": "yes", "bus": "yes", "highway": "bus_stop", "name": "Wietzegraben", "network": "Gro\u00dfraum-Verkehr Hannover", "network:short": "GVH", "network:wikidata": "Q1549516", "network:wikipedia": "de:Gro\u00dfraum-Verkehr Hannover", "public_transport": "platform", "shelter": "yes", "tactile_paving": "no", "wheelchair": "yes"}}, {"type": "node", "id": 324296570, "lat": 52.4015429, "lon": 9.7634069, "tags": {"bench": "no", "bin": "yes", "bus": "yes", "highway": "bus_stop", "lit": "yes", "name": "Constantinstra\u00dfe", "network": "Gro\u00dfraum-Verkehr Hannover", "public_transport": "platform", "shelter": "no", "tactile_paving": "no", "wheelchair": "yes"}}, {"type": "node", "id": 324296847, "lat": 52.3979847, "lon": 9.7639449, "tags": {"bench": "yes", "bin": "yes", "bus": "yes", "highway": "bus_stop", "lit": "yes", "name": "Uelzestra\u00dfe", "network": "Gro\u00dfraum-Verkehr Hannover", "public_transport": "platform", "route_ref": "122;133", "shelter": "yes", "tactile_paving": "no", "wheelchair": "yes"}}, {"type": "node", "id": 324329614, "lat": 52.4100056, "lon": 9.7626715, "tags": {"bench": "yes", "bin": "yes", "bus": "yes", "highway": "bus_stop", "lit": "yes", "name": "Sahlkamp", "network": "Gro\u00dfraum-Verkehr Hannover", "network:short": "GVH", "network:wikidata": "Q1549516", "network:wikipedia": "de:Gro\u00dfraum-Verkehr Hannover", "public_transport": "platform", "shelter": "yes", "tactile_paving": "no", "wheelchair": "yes", "wheelchair:description": "ALLE Busse sind mit Rampe ausgestattet!"}}, {"type": "node", "id": 324329615, "lat": 52.4103671, "lon": 9.7699545, "tags": {"bench": "yes", "bin": "yes", "bus": "yes", "check_date:shelter": "2022-09-28", "highway": "bus_stop", "name": "Wietzegraben", "network": "Gro\u00dfraum-Verkehr Hannover", "public_transport": "platform", "shelter": "yes", "tactile_paving": "no", "wheelchair": "yes"}}, {"type": "node", "id": 324331027, "lat": 52.4017075, "lon": 9.7632469, "tags": {"bench": "yes", "bin": "yes", "bus": "yes", "highway": "bus_stop", "lit": "yes", "name": "Constantinstra\u00dfe", "network": "Gro\u00dfraum-Verkehr Hannover", "public_transport": "platform", "shelter": "no", "tactile_paving": "no", "wheelchair": "yes"}}, {"type": "node", "id": 324331028, "lat": 52.3984205, "lon": 9.7637225, "tags": {"bench": "yes", "bin": "yes", "bus": "yes", "highway": "bus_stop", "lit": "yes", "name": "Uelzestra\u00dfe", "network": "Gro\u00dfraum-Verkehr Hannover", "public_transport": "platform", "route_ref": "122;133", "shelter": "yes", "tactile_paving": "no", "wheelchair": "yes"}}, {"type": "node", "id": 324448561, "lat": 52.4146484, "lon": 9.7814594, "tags": {"bench": "yes", "bin": "yes", "bus": "yes", "highway": "bus_stop", "kerb": "raised", "kerb:approach_aid": "no", "lit": "yes", "name": "Alte Heide", "network": "Gro\u00dfraum-Verkehr Hannover", "network:short": "GVH", "network:wikidata": "Q1549516", "network:wikipedia": "de:Gro\u00dfraum-Verkehr Hannover", "passenger_information_display": "yes", "passenger_information_display:speech_output": "yes", "public_transport": "platform", "shelter": "yes", "tactile_paving": "no", "wheelchair": "yes"}}, {"type": "node", "id": 324448562, "lat": 52.415368, "lon": 9.781692, "tags": {"bench": "yes", "bin": "yes", "bus": "yes", "covered": "no", "highway": "bus_stop", "kerb": "raised", "kerb:approach_aid": "no", "lit": "yes", "name": "Alte Heide", "network": "Gro\u00dfraum-Verkehr Hannover", "network:short": "GVH", "network:wikidata": "Q1549516", "network:wikipedia": "de:Gro\u00dfraum-Verkehr Hannover", "passenger_information_display": "yes", "passenger_information_display:speech_output": "yes", "public_transport": "platform", "ref:IFOPT": "de:03241:2641:2:2644", "route_ref": "122;135", "shelter": "yes", "survey:date": "2023-09-02", "tactile_paving": "no", "wheelchair": "yes"}}, {"type": "node", "id": 325995487, "lat": 52.4158405, "lon": 9.7624125, "tags": {"bench": "yes", "bin": "yes", "bus": "yes", "highway": "bus_stop", "lit": "yes", "name": "Dunantstra\u00dfe", "network": "Gro\u00dfraum-Verkehr Hannover", "network:short": "GVH", "network:wikidata": "Q1549516", "network:wikipedia": "de:Gro\u00dfraum-Verkehr Hannover", "public_transport": "platform", "shelter": "yes", "tactile_paving": "yes", "wheelchair": "yes", "wheelchair:description": "ALLE Busse sind mit Rampe ausgestattet!"}}, {"type": "node", "id": 328862304, "lat": 52.4001314, "lon": 9.781774, "tags": {"bench": "no", "bin": "yes", "bus": "yes", "highway": "bus_stop", "lit": "yes", "mapillary": "1703740669813848", "name": "Spannhagengarten", "network": "Gro\u00dfraum-Verkehr Hannover", "pole": "yes", "public_transport": "platform", "ref:IFOPT": "de:03241:2151:2:2154", "shelter": "no", "survey:date": "2017-09-13", "tactile_paving": "no", "wheelchair": "yes"}}, {"type": "node", "id": 328898262, "lat": 52.3933082, "lon": 9.793973, "tags": {"bench": "no", "bus": "yes", "highway": "bus_stop", "name": "Stadtfelddamm", "network": "Gro\u00dfraum-Verkehr Hannover", "public_transport": "platform", "shelter": "no", "tactile_paving": "no", "wheelchair": "yes"}}, {"type": "node", "id": 328900944, "lat": 52.3935042, "lon": 9.7944381, "tags": {"bench": "yes", "bus": "yes", "highway": "bus_stop", "name": "Stadtfelddamm", "network": "Gro\u00dfraum-Verkehr Hannover", "public_transport": "platform", "shelter": "yes", "tactile_paving": "no"}}, {"type": "node", "id": 328903771, "lat": 52.3916688, "lon": 9.8037133, "tags": {"bench": "yes", "bin": "yes", "bus": "yes", "highway": "bus_stop", "lit": "no", "name": "Roderbruchstra\u00dfe", "network": "Gro\u00dfraum-Verkehr Hannover", "passenger_information_display": "no", "public_transport": "platform", "ref:IFOPT": "de:03241:2459:0:2459", "shelter": "yes", "tactile_paving": "no"}}, {"type": "node", "id": 328904704, "lat": 52.3915114, "lon": 9.8033627, "tags": {"bench": "yes", "bin": "yes", "bus": "yes", "highway": "bus_stop", "lit": "no", "local_ref": "2460", "name": "Roderbruchstra\u00dfe", "network": "Gro\u00dfraum-Verkehr Hannover", "passenger_information_display": "no", "public_transport": "platform", "ref:IFOPT": "de:03241:2459:0:2460", "shelter": "yes", "tactile_paving": "no"}}, {"type": "node", "id": 328912938, "lat": 52.3892636, "lon": 9.806762, "tags": {"bench": "yes", "bin": "yes", "bus": "yes", "highway": "bus_stop", "lit": "no", "name": "Nobelring", "network": "Gro\u00dfraum-Verkehr Hannover", "passenger_information_display": "no", "public_transport": "platform", "ref:IFOPT": "de:03241:2451:0:2453", "shelter": "yes", "tactile_paving": "no", "wheelchair": "yes"}}, {"type": "node", "id": 328913000, "lat": 52.3884969, "lon": 9.8068049, "tags": {"bench": "yes", "bin": "yes", "bus": "yes", "highway": "bus_stop", "lit": "yes", "local_ref": "2454", "name": "Nobelring", "network": "Gro\u00dfraum-Verkehr Hannover", "passenger_information_display": "no", "public_transport": "platform", "ref:IFOPT": "de:03241:2451:0:2454", "route_ref": "123;137", "shelter": "yes", "surface": "paving_stones", "tactile_paving": "no", "wheelchair": "yes"}}, {"type": "node", "id": 328917685, "lat": 52.384129, "lon": 9.8097642, "tags": {"bench": "yes", "bin": "yes", "bus": "yes", "highway": "bus_stop", "lit": "yes", "local_ref": "2464", "name": "Medizinische Hochschule", "network": "Gro\u00dfraum-Verkehr Hannover", "passenger_information_display": "no", "public_transport": "platform", "ref:IFOPT": "de:03241:2461:2:2464", "route_ref": "123;137", "shelter": "yes", "tactile_paving": "no", "wheelchair": "yes"}}, {"type": "node", "id": 328917853, "lat": 52.3846262, "lon": 9.8098715, "tags": {"bench": "yes", "bin": "yes", "bus": "yes", "covered": "no", "highway": "bus_stop", "lit": "yes", "name": "Medizinische Hochschule", "network": "Gro\u00dfraum-Verkehr Hannover", "passenger_information_display": "no", "public_transport": "platform", "ref:IFOPT": "de:03241:2461:2:2463", "shelter": "yes", "tactile_paving": "no", "wheelchair": "yes"}}, {"type": "node", "id": 328926816, "lat": 52.3700615, "lon": 9.8052035, "tags": {"bench": "yes", "bin": "yes", "bus": "yes", "highway": "bus_stop", "lit": "yes", "local_ref": "3016", "name": "Nackenberg", "network": "Gro\u00dfraum-Verkehr Hannover", "passenger_information_display": "no", "public_transport": "platform", "ref:IFOPT": "de:03241:3011:2:3016", "route_ref": "123;124", "shelter": "yes", "tactile_paving": "no", "wheelchair": "yes"}}, {"type": "node", "id": 328926868, "lat": 52.3708044, "lon": 9.8053584, "tags": {"bench": "yes", "bin": "yes", "bus": "yes", "highway": "bus_stop", "lit": "yes", "name": "Nackenberg", "network": "Gro\u00dfraum-Verkehr Hannover", "passenger_information_display": "no", "public_transport": "platform", "ref:IFOPT": "de:03241:3011:2:3015", "shelter": "yes", "tactile_paving": "no", "wheelchair": "yes"}}, {"type": "node", "id": 328962018, "lat": 52.4139832, "lon": 9.6474726, "tags": {"bench": "yes", "bin": "yes", "highway": "bus_stop", "lit": "yes", "name": "Auf der Klappenburg", "network": "Gro\u00dfraum-Verkehr Hannover", "public_transport": "platform", "shelter": "yes", "tactile_paving": "no"}}, {"type": "node", "id": 328963264, "lat": 52.4137861, "lon": 9.6480994, "tags": {"bench": "yes", "bin": "yes", "bus": "yes", "highway": "bus_stop", "lit": "yes", "name": "Auf der Klappenburg", "network": "Gro\u00dfraum-Verkehr Hannover", "public_transport": "platform", "shelter": "yes", "tactile_paving": "no"}}, {"type": "node", "id": 328967128, "lat": 52.4152763, "lon": 9.6509254, "tags": {"bench": "yes", "bin": "yes", "bus": "yes", "highway": "bus_stop", "mapillary": "297557638491375", "name": "Stelinger Stra\u00dfe", "network": "Gro\u00dfraum-Verkehr Hannover", "public_transport": "platform", "shelter": "yes", "survey:date": "2017-05-24"}}, {"type": "node", "id": 328967423, "lat": 52.4152932, "lon": 9.6526331, "tags": {"bench": "yes", "bin": "yes", "bus": "yes", "highway": "bus_stop", "lit": "yes", "name": "Stelinger Stra\u00dfe", "network": "Gro\u00dfraum-Verkehr Hannover", "public_transport": "platform", "shelter": "yes", "tactile_paving": "no"}}, {"type": "node", "id": 330902991, "lat": 52.4286223, "lon": 9.7442244, "tags": {"bench": "no", "bus": "yes", "departures_board": "timetable", "highway": "bus_stop", "name": "Langenhagen/Klusriede", "network": "Gro\u00dfraum-Verkehr Hannover", "network:short": "GVH", "network:wikidata": "Q1549516", "public_transport": "platform", "route_ref": "616", "shelter": "no", "tactile_paving": "no"}}, {"type": "node", "id": 330903197, "lat": 52.4285098, "lon": 9.7443109, "tags": {"bench": "no", "bus": "yes", "departures_board": "timetable", "highway": "bus_stop", "name": "Langenhagen/Klusriede", "network": "Gro\u00dfraum-Verkehr Hannover", "network:short": "GVH", "network:wikidata": "Q1549516", "public_transport": "platform", "route_ref": "616", "shelter": "no", "tactile_paving": "no"}}, {"type": "node", "id": 330904508, "lat": 52.427716, "lon": 9.7406216, "tags": {"bench": "no", "bus": "yes", "highway": "bus_stop", "name": "Langenhagen/Ithweg", "network": "Gro\u00dfraum-Verkehr Hannover", "public_transport": "stop_position", "shelter": "no", "tactile_paving": "no"}}, {"type": "node", "id": 332471603, "lat": 52.4142241, "lon": 9.7121801, "tags": {"bench": "no", "bus": "yes", "departures_board": "timetable", "highway": "bus_stop", "kerb": "raised", "kerb:approach_aid": "no", "name": "Eibenweg", "network": "Gro\u00dfraum-Verkehr Hannover", "passenger_information_display": "no", "public_transport": "platform", "shelter": "no"}}, {"type": "node", "id": 332471604, "lat": 52.4142714, "lon": 9.7121109, "tags": {"bench": "no", "bus": "yes", "departures_board": "timetable", "highway": "bus_stop", "kerb": "raised", "kerb:approach_aid": "no", "name": "Eibenweg", "network": "Gro\u00dfraum-Verkehr Hannover", "passenger_information_display": "no", "public_transport": "platform", "shelter": "no"}}, {"type": "node", "id": 332471605, "lat": 52.4125308, "lon": 9.7060257, "tags": {"bench": "no", "bin": "yes", "bus": "yes", "highway": "bus_stop", "lit": "yes", "name": "Friedenauer Str.", "network": "Gro\u00dfraum-Verkehr Hannover", "network:short": "GVH", "network:wikidata": "Q1549516", "public_transport": "platform", "shelter": "no", "tactile_paving": "no"}}, {"type": "node", "id": 332471606, "lat": 52.4124677, "lon": 9.7062103, "tags": {"bench": "yes", "bin": "yes", "bus": "yes", "highway": "bus_stop", "lit": "yes", "name": "Friedenauer Str.", "network": "Gro\u00dfraum-Verkehr Hannover", "network:short": "GVH", "network:wikidata": "Q1549516", "public_transport": "platform", "shelter": "yes", "tactile_paving": "no"}}, {"type": "node", "id": 333743912, "lat": 52.3715368, "lon": 9.7819724, "tags": {"bench": "no", "bin": "yes", "bus": "yes", "highway": "bus_stop", "lit": "yes", "name": "Am Pferdeturm", "network": "Gro\u00dfraum-Verkehr Hannover", "operator": "\u00dcSTRA Hannoversche Verkehrsbetriebe AG", "public_transport": "platform", "shelter": "no", "tactile_paving": "no", "wheelchair": "yes"}}, {"type": "node", "id": 334204969, "lat": 52.4102077, "lon": 9.7889984, "tags": {"bench": "yes", "bin": "yes", "bus": "yes", "highway": "bus_stop", "lit": "yes", "name": "S\u00fcndernstra\u00dfe", "network": "Gro\u00dfraum-Verkehr Hannover", "public_transport": "platform", "shelter": "yes", "tactile_paving": "no", "wheelchair": "yes"}}, {"type": "node", "id": 334204972, "lat": 52.4102645, "lon": 9.7840186, "tags": {"bench": "no", "bin": "yes", "bus": "yes", "highway": "bus_stop", "lit": "yes", "name": "Cranzer Weg", "network": "Gro\u00dfraum-Verkehr Hannover", "public_transport": "platform", "shelter": "no", "tactile_paving": "no", "wheelchair": "yes"}}, {"type": "node", "id": 334207261, "lat": 52.4128706, "lon": 9.8054566, "tags": {"bench": "yes", "bin": "yes", "bus": "yes", "highway": "bus_stop", "lit": "yes", "name": "Laher Kirchweg", "network": "Gro\u00dfraum-Verkehr Hannover", "network:short": "GVH", "network:wikidata": "Q1549516", "network:wikipedia": "de:Gro\u00dfraum-Verkehr Hannover", "public_transport": "platform", "shelter": "yes", "tactile_paving": "no"}}, {"type": "node", "id": 334736155, "lat": 52.4101409, "lon": 9.7840253, "tags": {"bench": "no", "bin": "yes", "bus": "yes", "highway": "bus_stop", "lit": "yes", "name": "Cranzer Weg", "network": "Gro\u00dfraum-Verkehr Hannover", "public_transport": "platform", "shelter": "no", "tactile_paving": "no", "wheelchair": "limited"}}, {"type": "node", "id": 334736157, "lat": 52.4101158, "lon": 9.7888152, "tags": {"bench": "no", "bin": "yes", "bus": "yes", "highway": "bus_stop", "lit": "yes", "name": "S\u00fcndernstra\u00dfe", "network": "Gro\u00dfraum-Verkehr Hannover", "public_transport": "platform", "shelter": "no", "tactile_paving": "no", "wheelchair": "yes"}}, {"type": "node", "id": 334736159, "lat": 52.4114316, "lon": 9.7941298, "tags": {"bench": "no", "bin": "yes", "bus": "yes", "highway": "bus_stop", "lit": "yes", "name": "Tollenbrink", "network": "Gro\u00dfraum-Verkehr Hannover", "network:short": "GVH", "network:wikidata": "Q1549516", "network:wikipedia": "de:Gro\u00dfraum-Verkehr Hannover", "public_transport": "platform", "shelter": "no", "tactile_paving": "no", "wheelchair": "yes"}}, {"type": "node", "id": 334736162, "lat": 52.4121877, "lon": 9.7969517, "tags": {"bench": "no", "bin": "yes", "bus": "yes", "highway": "bus_stop", "lit": "yes", "name": "Bothfelder Kirchweg", "network": "Gro\u00dfraum-Verkehr Hannover", "network:short": "GVH", "network:wikidata": "Q1549516", "network:wikipedia": "de:Gro\u00dfraum-Verkehr Hannover", "old_name": "Bothfeld / Kirche", "public_transport": "platform", "ref:IFOPT": "de:03241:2181:2:2184", "shelter": "no", "tactile_paving": "no", "wheelchair": "yes"}}, {"type": "node", "id": 334744995, "lat": 52.416546, "lon": 9.7978313, "tags": {"bench": "no", "bin": "yes", "bus": "yes", "highway": "bus_stop", "lit": "yes", "mapillary": "1082834708790144", "name": "Hintzehof", "network": "Gro\u00dfraum-Verkehr Hannover", "pole": "yes", "public_transport": "platform", "shelter": "no", "survey:date": "2018-08-01", "tactile_paving": "no", "wheelchair": "yes"}}, {"type": "node", "id": 334745001, "lat": 52.4151358, "lon": 9.7955145, "tags": {"bench": "yes", "bin": "no", "bus": "yes", "description": "Haltestelle aufgrund von Bauma\u00dfnahmen von 02.06.2020 bis vrsl. Mitte 2022 nicht angefahren", "highway": "bus_stop", "lit": "yes", "name": "Bothfeld", "network": "Gro\u00dfraum-Verkehr Hannover", "public_transport": "platform", "ref:IFOPT": "de:03241:2191:2:2194", "shelter": "no", "tactile_paving": "no", "wheelchair": "yes"}}, {"type": "node", "id": 334745003, "lat": 52.415499, "lon": 9.7870673, "tags": {"bench": "no", "bin": "yes", "bus": "yes", "covered": "no", "highway": "bus_stop", "lit": "yes", "name": "Scheffelfeld", "network": "Gro\u00dfraum-Verkehr Hannover", "public_transport": "platform", "ref:IFOPT": "de:03241:2637:0:2638", "shelter": "no", "tactile_paving": "no", "wheelchair": "limited"}}, {"type": "node", "id": 334745004, "lat": 52.415815, "lon": 9.7808312, "tags": {"bench": "yes", "bin": "yes", "bus": "yes", "highway": "bus_stop", "kerb": "raised", "kerb:approach_aid": "no", "lit": "yes", "name": "Alte Heide", "network": "Gro\u00dfraum-Verkehr Hannover", "network:short": "GVH", "network:wikidata": "Q1549516", "network:wikipedia": "de:Gro\u00dfraum-Verkehr Hannover", "passenger_information_display": "no", "public_transport": "platform", "shelter": "yes", "survey:date": "2023-09-02", "tactile_paving": "no", "wheelchair": "yes"}}, {"type": "node", "id": 334745005, "lat": 52.4171454, "lon": 9.7726931, "tags": {"bench": "yes", "bin": "yes", "bus": "yes", "highway": "bus_stop", "kerb": "raised", "kerb:approach_aid": "no", "lit": "yes", "name": "Bahnstrift", "network": "Gro\u00dfraum-Verkehr Hannover", "passenger_information_display": "no", "public_transport": "platform", "ref:IFOPT": "de:03241:2631:2:2633", "shelter": "yes", "tactile_paving": "no", "wheelchair": "yes"}}, {"type": "node", "id": 334745013, "lat": 52.4183643, "lon": 9.7650833, "tags": {"bench": "yes", "bin": "yes", "bus": "yes", "covered": "no", "highway": "bus_stop", "kerb": "raised", "kerb:approach_aid": "no", "lit": "no", "name": "Tempelhofweg", "network": "Gro\u00dfraum-Verkehr Hannover", "passenger_information_display": "no", "public_transport": "platform", "ref:IFOPT": "de:03241:2621:2:2624", "route_ref": "135", "shelter": "yes", "tactile_paving": "no", "wheelchair": "yes"}}, {"type": "node", "id": 334745014, "lat": 52.4160288, "lon": 9.7621949, "tags": {"bench": "yes", "bin": "yes", "bus": "yes", "highway": "bus_stop", "lit": "yes", "name": "Dunantstra\u00dfe", "network": "Gro\u00dfraum-Verkehr Hannover", "network:short": "GVH", "network:wikidata": "Q1549516", "network:wikipedia": "de:Gro\u00dfraum-Verkehr Hannover", "public_transport": "platform", "shelter": "yes", "tactile_paving": "yes", "wheelchair": "yes"}}, {"type": "node", "id": 335755599, "lat": 52.3619324, "lon": 9.7209255, "tags": {"bench": "yes", "bin": "yes", "bus": "yes", "highway": "bus_stop", "kerb": "raised", "kerb:approach_aid": "no", "lit": "no", "name": "Allerweg", "network": "Gro\u00dfraum-Verkehr Hannover", "old_name": "Krankenhaus Siloah", "passenger_information_display": "no", "public_transport": "platform", "ref:IFOPT": "de:03241:871:2:874", "shelter": "yes", "tactile_paving": "no", "wheelchair": "limited"}}, {"type": "node", "id": 335755600, "lat": 52.3756618, "lon": 9.7318823, "tags": {"bus": "yes", "highway": "bus_stop", "name": "Steintor", "network": "Gro\u00dfraum-Verkehr Hannover", "public_transport": "stop_position", "ref:IFOPT": "de:03241:121:3:125", "ref_name": "Steintor, Hannover", "route_ref": "300;500;700", "shelter": "no", "wheelchair": "yes"}}, {"type": "node", "id": 335757773, "lat": 52.3192613, "lon": 9.7280078, "tags": {"bus": "yes", "highway": "bus_stop", "name": "Westerfeld/Weetzener Landstra\u00dfe", "network": "Gro\u00dfraum-Verkehr Hannover", "public_transport": "stop_position", "shelter": "yes"}}, {"type": "node", "id": 335757777, "lat": 52.3183705, "lon": 9.7271495, "tags": {"bus": "yes", "highway": "bus_stop", "name": "Westerfeld/Weetzener Landstra\u00dfe", "network": "GVH", "public_transport": "stop_position"}}, {"type": "node", "id": 335757781, "lat": 52.3170936, "lon": 9.7216232, "tags": {"bench": "yes", "bin": "yes", "bus": "yes", "highway": "bus_stop", "name": "Westerfeld/Alfred-Bentz-Stra\u00dfe", "network": "GVH", "public_transport": "stop_position", "ref": "5306", "shelter": "yes", "tactile_paving": "no", "wheelchair": "yes"}}, {"type": "node", "id": 335757785, "lat": 52.3170779, "lon": 9.7217714, "tags": {"bench": "yes", "bin": "yes", "bus": "yes", "highway": "bus_stop", "name": "Westerfeld/Alfred-Bentz-Stra\u00dfe", "network": "GVH", "public_transport": "stop_position", "ref": "5305", "shelter": "yes", "tactile_paving": "no", "wheelchair": "yes"}}, {"type": "node", "id": 335758499, "lat": 52.3251811, "lon": 9.7234162, "tags": {"bus": "yes", "highway": "bus_stop", "name": "Westerfeld/Deveser Stra\u00dfe", "network": "Gro\u00dfraum-Verkehr Hannover", "public_transport": "stop_position", "shelter": "yes"}}, {"type": "node", "id": 335758505, "lat": 52.3246502, "lon": 9.7238194, "tags": {"bus": "yes", "highway": "bus_stop", "name": "Westerfeld/Deveser Stra\u00dfe", "network": "Gro\u00dfraum-Verkehr Hannover", "public_transport": "stop_position", "ref": "5281", "shelter": "yes"}}, {"type": "node", "id": 335758509, "lat": 52.3299822, "lon": 9.7203256, "tags": {"bus": "yes", "highway": "bus_stop", "name": "Westerfeld/Saarstra\u00dfe", "network": "Gro\u00dfraum-Verkehr Hannover", "public_transport": "stop_position", "shelter": "no"}}, {"type": "node", "id": 335758513, "lat": 52.3289053, "lon": 9.7205196, "tags": {"bus": "yes", "highway": "bus_stop", "name": "Westerfeld/Saarstra\u00dfe", "network": "Gro\u00dfraum-Verkehr Hannover", "public_transport": "stop_position", "shelter": "no"}}, {"type": "node", "id": 335758519, "lat": 52.3353885, "lon": 9.7168815, "tags": {"bus": "yes", "highway": "bus_stop", "name": "Stadtfriedhof Ricklingen", "network": "Gro\u00dfraum-Verkehr Hannover", "network:short": "GVH", "network:wikidata": "Q1549516", "public_transport": "platform", "wheelchair": "yes"}}, {"type": "node", "id": 335758531, "lat": 52.3387673, "lon": 9.7169346, "tags": {"bus": "yes", "highway": "bus_stop", "name": "Menzelstra\u00dfe", "network": "Gro\u00dfraum-Verkehr Hannover", "public_transport": "stop_position", "wheelchair": "limited"}}, {"type": "node", "id": 336266341, "lat": 52.4101916, "lon": 9.776947, "tags": {"bench": "yes", "bin": "yes", "bus": "yes", "highway": "bus_stop", "lit": "yes", "name": "Eifelweg", "network": "Gro\u00dfraum-Verkehr Hannover", "public_transport": "platform", "shelter": "yes", "survey:date": "2023-09-02", "tactile_paving": "no", "wheelchair": "yes"}}, {"type": "node", "id": 336266347, "lat": 52.4102869, "lon": 9.7769527, "tags": {"bench": "yes", "bin": "yes", "bus": "yes", "highway": "bus_stop", "lit": "yes", "name": "Eifelweg", "network": "Gro\u00dfraum-Verkehr Hannover", "public_transport": "platform", "shelter": "yes", "survey:date": "2023-09-02", "tactile_paving": "yes", "wheelchair": "yes"}}, {"type": "node", "id": 336638883, "lat": 52.3655296, "lon": 9.7088873, "tags": {"bus": "yes", "highway": "bus_stop", "name": "An der Martinskirche", "public_transport": "stop_position", "ref:IFOPT": "de:03241:591:0"}}, {"type": "node", "id": 337599715, "lat": 52.4331677, "lon": 9.7594505, "tags": {"bench": "yes", "bin": "yes", "bus": "yes", "highway": "bus_stop", "name": "Langenhagen Silbersee", "network": "Gro\u00dfraum-Verkehr Hannover", "network:short": "GVH", "network:wikidata": "Q1549516", "public_transport": "platform", "shelter": "yes", "tactile_paving": "yes", "wheelchair": "yes"}}, {"type": "node", "id": 337600093, "lat": 52.4340542, "lon": 9.7587738, "tags": {"bench": "yes", "bin": "yes", "bus": "yes", "highway": "bus_stop", "lit": "yes", "name": "Langenhagen Silbersee", "network": "Gro\u00dfraum-Verkehr Hannover", "network:short": "GVH", "network:wikidata": "Q1549516", "public_transport": "platform", "shelter": "no", "tactile_paving": "no"}}, {"type": "node", "id": 338482576, "lat": 52.4108072, "lon": 9.749026, "tags": {"bench": "yes", "bin": "yes", "bus": "yes", "highway": "bus_stop", "lit": "yes", "name": "Vahrenheider Markt", "network": "Gro\u00dfraum-Verkehr Hannover", "network:short": "GVH", "network:wikidata": "Q1549516", "network:wikipedia": "de:Gro\u00dfraum-Verkehr Hannover", "public_transport": "platform", "shelter": "yes", "tactile_paving": "no", "wheelchair": "limited", "wheelchair:description": "nur Mo-Fr.!!! Die Busse sind laut GVH alle mit einer Rampe ausgestattet. Diese wird nicht immer ausgefahren."}}, {"type": "node", "id": 338482586, "lat": 52.4120866, "lon": 9.7814182, "tags": {"bench": "yes", "bin": "yes", "bus": "yes", "highway": "bus_stop", "kerb": "raised", "kerb:approach_aid": "no", "lit": "yes", "name": "Spessartweg", "network": "Gro\u00dfraum-Verkehr Hannover", "passenger_information_display": "no", "public_transport": "platform", "shelter": "yes", "tactile_paving": "no", "wheelchair": "yes"}}, {"type": "node", "id": 338482587, "lat": 52.4116767, "lon": 9.7815409, "tags": {"bench": "no", "bin": "yes", "bus": "yes", "highway": "bus_stop", "kerb": "raised", "kerb:approach_aid": "no", "lit": "yes", "name": "Spessartweg", "network": "Gro\u00dfraum-Verkehr Hannover", "passenger_information_display": "no", "public_transport": "platform", "shelter": "no", "tactile_paving": "no", "wheelchair": "yes"}}, {"type": "node", "id": 338482588, "lat": 52.4109456, "lon": 9.7494037, "tags": {"bench": "yes", "bin": "yes", "bus": "yes", "highway": "bus_stop", "lit": "yes", "name": "Vahrenheider Markt", "network": "Gro\u00dfraum-Verkehr Hannover", "network:short": "GVH", "network:wikidata": "Q1549516", "network:wikipedia": "de:Gro\u00dfraum-Verkehr Hannover", "public_transport": "platform", "shelter": "yes", "tactile_paving": "no", "wheelchair": "limited", "wheelchair:description": "nur Mo-Fr.!!! Die Busse sind laut GVH alle mit einer Rampe ausgestattet. Diese wird nicht immer ausgefahren."}}, {"type": "node", "id": 338482594, "lat": 52.4181584, "lon": 9.7654465, "tags": {"bench": "yes", "bin": "yes", "bus": "yes", "highway": "bus_stop", "kerb": "raised", "kerb:approach_aid": "no", "lit": "no", "name": "Tempelhofweg", "network": "Gro\u00dfraum-Verkehr Hannover", "passenger_information_display": "no", "public_transport": "platform", "ref:IFOPT": "de:03241:2621:2:2623", "route_ref": "135", "shelter": "yes", "tactile_paving": "no", "wheelchair": "yes"}}, {"type": "node", "id": 338482595, "lat": 52.4103836, "lon": 9.7548841, "tags": {"bench": "no", "bin": "yes", "bus": "yes", "highway": "bus_stop", "lit": "no", "name": "Hallesche Stra\u00dfe", "network": "Gro\u00dfraum-Verkehr Hannover", "network:short": "GVH", "network:wikidata": "Q1549516", "network:wikipedia": "de:Gro\u00dfraum-Verkehr Hannover", "public_transport": "platform", "shelter": "no", "tactile_paving": "yes", "wheelchair": "yes"}}, {"type": "node", "id": 338482597, "lat": 52.411425, "lon": 9.7428315, "tags": {"bench": "yes", "bin": "yes", "bus": "yes", "covered": "no", "highway": "bus_stop", "kerb": "raised", "kerb:approach_aid": "no", "lit": "yes", "name": "Reiterstadion", "network": "Gro\u00dfraum-Verkehr Hannover", "network:short": "GVH", "network:wikidata": "Q1549516", "network:wikipedia": "de:Gro\u00dfraum-Verkehr Hannover", "passenger_information_display": "no", "public_transport": "platform", "ref:IFOPT": "de:03241:2581:2:2584", "route_ref": "135", "shelter": "yes", "tactile_paving": "no", "wheelchair": "yes"}}, {"type": "node", "id": 338482604, "lat": 52.4102625, "lon": 9.7546572, "tags": {"bench": "no", "bin": "yes", "bus": "yes", "highway": "bus_stop", "lit": "no", "name": "Hallesche Stra\u00dfe", "network": "Gro\u00dfraum-Verkehr Hannover", "network:short": "GVH", "network:wikidata": "Q1549516", "network:wikipedia": "de:Gro\u00dfraum-Verkehr Hannover", "public_transport": "platform", "shelter": "no", "tactile_paving": "yes", "wheelchair": "yes"}}, {"type": "node", "id": 338482606, "lat": 52.4112418, "lon": 9.7428943, "tags": {"bench": "yes", "bin": "yes", "bus": "yes", "covered": "no", "highway": "bus_stop", "kerb": "raised", "kerb:approach_aid": "no", "lit": "yes", "name": "Reiterstadion", "network": "Gro\u00dfraum-Verkehr Hannover", "network:short": "GVH", "network:wikidata": "Q1549516", "network:wikipedia": "de:Gro\u00dfraum-Verkehr Hannover", "passenger_information_display": "no", "public_transport": "platform", "ref:IFOPT": "de:03241:2581:2:2583", "route_ref": "135", "shelter": "yes", "tactile_paving": "no", "wheelchair": "yes"}}, {"type": "node", "id": 338486028, "lat": 52.4260118, "lon": 9.8161025, "tags": {"bus": "yes", "highway": "bus_stop", "name": "An den Deichwiesen", "network": "Gro\u00dfraum-Verkehr Hannover", "public_transport": "platform", "shelter": "no", "wheelchair": "yes"}}, {"type": "node", "id": 338486029, "lat": 52.4257376, "lon": 9.8154315, "tags": {"bus": "yes", "highway": "bus_stop", "name": "An den Deichwiesen", "network": "Gro\u00dfraum-Verkehr Hannover", "public_transport": "platform", "shelter": "no", "wheelchair": "yes"}}, {"type": "node", "id": 338775105, "lat": 52.4153881, "lon": 9.788018, "tags": {"bench": "no", "bin": "yes", "bus": "yes", "covered": "no", "highway": "bus_stop", "name": "Scheffelfeld", "network": "Gro\u00dfraum-Verkehr Hannover", "public_transport": "platform", "ref:IFOPT": "de:03241:2637:0:2637", "shelter": "no", "tactile_paving": "no", "wheelchair": "limited"}}, {"type": "node", "id": 338775109, "lat": 52.415101, "lon": 9.7948051, "tags": {"bench": "no", "bin": "no", "bus": "yes", "description": "Haltestelle aufgrund von Bauma\u00dfnahmen von 02.06.2020 bis vrsl. Mitte 2022 nicht angefahren", "highway": "bus_stop", "lit": "yes", "name": "Bothfeld", "network": "Gro\u00dfraum-Verkehr Hannover", "public_transport": "platform", "shelter": "no", "tactile_paving": "no", "wheelchair": "yes"}}, {"type": "node", "id": 339192148, "lat": 52.3354515, "lon": 9.7168849, "tags": {"bus": "yes", "highway": "bus_stop", "name": "Stadtfriedhof Ricklingen", "network": "Gro\u00dfraum-Verkehr Hannover", "network:short": "GVH", "network:wikidata": "Q1549516", "public_transport": "platform", "wheelchair": "yes"}}, {"type": "node", "id": 339192153, "lat": 52.3387468, "lon": 9.7171038, "tags": {"bus": "yes", "highway": "bus_stop", "name": "Menzelstra\u00dfe", "network": "Gro\u00dfraum-Verkehr Hannover", "network:short": "GVH", "network:wikidata": "Q1549516", "public_transport": "stop_position", "wheelchair": "limited"}}, {"type": "node", "id": 339258024, "lat": 52.3978182, "lon": 9.7245979, "tags": {"bench": "yes", "bin": "yes", "bus": "yes", "highway": "bus_stop", "kerb": "raised", "kerb:approach_aid": "no", "mapillary": "211574640519972", "name": "Scheelenkamp", "network": "Gro\u00dfraum-Verkehr Hannover", "operator": "\u00dcSTRA Hannoversche Verkehrsbetriebe AG", "passenger_information_display": "no", "pole": "yes", "public_transport": "platform", "ref:IFOPT": "de:03241:380:0:381", "ref_name": "Scheelenkamp, Hannover", "shelter": "yes", "survey:date": "2018-02-17", "tactile_paving": "no", "wheelchair": "yes"}}, {"type": "node", "id": 340098151, "lat": 52.4175584, "lon": 9.8066528, "tags": {"bench": "yes", "bin": "yes", "bus": "yes", "highway": "bus_stop", "lit": "yes", "name": "Gernsstra\u00dfe", "network": "Gro\u00dfraum-Verkehr Hannover", "network:short": "GVH", "network:wikidata": "Q1549516", "public_transport": "platform", "ref": "2272", "shelter": "yes", "tactile_paving": "no", "wheelchair": "yes"}}, {"type": "node", "id": 340098153, "lat": 52.4173741, "lon": 9.8063856, "tags": {"bench": "yes", "bin": "yes", "bus": "yes", "highway": "bus_stop", "lit": "yes", "name": "Gernsstra\u00dfe", "network": "Gro\u00dfraum-Verkehr Hannover", "network:short": "GVH", "network:wikidata": "Q1549516", "public_transport": "platform", "ref": "2271", "shelter": "yes", "tactile_paving": "no", "wheelchair": "yes"}}, {"type": "node", "id": 340098160, "lat": 52.4206049, "lon": 9.8114676, "tags": {"bench": "yes", "bus": "yes", "highway": "bus_stop", "name": "Uslarplatz", "network": "Gro\u00dfraum-Verkehr Hannover", "public_transport": "platform", "ref": "2282", "shelter": "yes", "wheelchair": "yes"}}, {"type": "node", "id": 340098162, "lat": 52.4206438, "lon": 9.8113645, "tags": {"bench": "yes", "bus": "yes", "highway": "bus_stop", "name": "Uslarplatz", "network": "Gro\u00dfraum-Verkehr Hannover", "public_transport": "platform", "ref": "2281", "shelter": "yes", "wheelchair": "yes"}}, {"type": "node", "id": 340098894, "lat": 52.3795125, "lon": 9.7331531, "tags": {"bench": "yes", "bin": "yes", "bus": "yes", "highway": "bus_stop", "lit": "yes", "name": "Am Klagesmarkt", "network": "Gro\u00dfraum-Verkehr Hannover", "passenger_information_display": "no", "public_transport": "platform", "ref:IFOPT": "de:03241:145:0:146", "ref_name": "Am Klagesmarkt, Hannover", "shelter": "yes", "tactile_paving": "no", "wheelchair": "yes"}}, {"type": "node", "id": 340098966, "lat": 52.4152553, "lon": 9.7571074, "tags": {"bench": "yes", "bin": "yes", "bus": "yes", "highway": "bus_stop", "lit": "yes", "name": "Fridtjof-Nansen-Schule", "network": "Gro\u00dfraum-Verkehr Hannover", "public_transport": "platform", "shelter": "yes", "tactile_paving": "yes", "wheelchair": "limited", "wheelchair:description": "nur Mo-Fr.!!! Die Busse sind laut GVH alle mit einer Rampe ausgestattet. Diese wird nicht immer ausgefahren."}}, {"type": "node", "id": 340098969, "lat": 52.4151986, "lon": 9.7576835, "tags": {"bench": "yes", "bin": "yes", "bus": "yes", "highway": "bus_stop", "lit": "yes", "name": "Fridtjof-Nansen-Schule", "network": "Gro\u00dfraum-Verkehr Hannover", "public_transport": "platform", "shelter": "yes", "tactile_paving": "yes", "wheelchair": "limited", "wheelchair:description": "nur Mo-Fr.!!! Die Busse sind laut GVH alle mit einer Rampe ausgestattet. Diese wird nicht immer ausgefahren."}}, {"type": "node", "id": 340098973, "lat": 52.4131056, "lon": 9.7566455, "tags": {"bench": "no", "bin": "yes", "bus": "yes", "highway": "bus_stop", "lit": "no", "name": "Leipziger Stra\u00dfe", "network": "Gro\u00dfraum-Verkehr Hannover", "network:short": "GVH", "network:wikidata": "Q1549516", "network:wikipedia": "de:Gro\u00dfraum-Verkehr Hannover", "public_transport": "platform", "shelter": "no", "tactile_paving": "no", "website": "https://uestra.de/mobilitaet_fuer_alle_stadtbus.html", "wheelchair": "limited", "wheelchair:description": "nur Mo-Fr.!!! Die Busse sind laut GVH alle mit einer Rampe ausgestattet. Diese wird nicht immer ausgefahren."}}, {"type": "node", "id": 340098977, "lat": 52.4132937, "lon": 9.7563911, "tags": {"bench": "no", "bin": "yes", "bus": "yes", "highway": "bus_stop", "lit": "no", "name": "Leipziger Stra\u00dfe", "network": "Gro\u00dfraum-Verkehr Hannover", "network:short": "GVH", "network:wikidata": "Q1549516", "network:wikipedia": "de:Gro\u00dfraum-Verkehr Hannover", "public_transport": "platform", "shelter": "no", "tactile_paving": "yes", "wheelchair": "limited", "wheelchair:description": "nur Mo-Fr.!!! Die Busse sind laut GVH alle mit einer Rampe ausgestattet. Diese wird nicht immer ausgefahren."}}, {"type": "node", "id": 340098982, "lat": 52.4122745, "lon": 9.7603258, "tags": {"bench": "yes", "bin": "no", "bus": "yes", "highway": "bus_stop", "lit": "no", "name": "Plauener Stra\u00dfe", "network": "Gro\u00dfraum-Verkehr Hannover", "public_transport": "platform", "shelter": "yes", "tactile_paving": "yes", "wheelchair": "limited", "wheelchair:description": "nur Mo-Fr.!!! Die Busse sind laut GVH alle mit einer Rampe ausgestattet. Diese wird nicht immer ausgefahren."}}, {"type": "node", "id": 340098987, "lat": 52.4124531, "lon": 9.7604385, "tags": {"bench": "yes", "bin": "yes", "bus": "yes", "highway": "bus_stop", "lit": "yes", "name": "Plauener Stra\u00dfe", "network": "Gro\u00dfraum-Verkehr Hannover", "public_transport": "platform", "shelter": "yes", "tactile_paving": "yes", "wheelchair": "limited", "wheelchair:description": "nur Mo-Fr.!!! Die Busse sind laut GVH alle mit einer Rampe ausgestattet. Diese wird nicht immer ausgefahren."}}, {"type": "node", "id": 340266420, "lat": 52.3770152, "lon": 9.6541325, "tags": {"bus": "yes", "highway": "bus_stop", "name": "Velber / Englischer Friedhof", "network": "GVH", "shelter": "no", "wheelchair": "yes"}}, {"type": "node", "id": 340321204, "lat": 52.4452964, "lon": 9.7385041, "tags": {"bench": "no", "bin": "yes", "bus": "yes", "check_date:shelter": "2023-05-25", "highway": "bus_stop", "name": "Langenhagen / Stadtparkallee", "network": "GVH", "shelter": "no", "tactile_paving": "no"}}, {"type": "node", "id": 340321206, "lat": 52.4452581, "lon": 9.738061, "tags": {"bench": "no", "bin": "yes", "bus": "yes", "highway": "bus_stop", "name": "Langenhagen / Stadtparkallee", "network": "GVH", "shelter": "yes", "tactile_paving": "no"}}, {"type": "node", "id": 341370811, "lat": 52.3179432, "lon": 9.8082881, "tags": {"bench": "no", "bin": "yes", "bus": "yes", "highway": "bus_stop", "lit": "no", "name": "Gutenbergstra\u00dfe", "network": "Gro\u00dfraum-Verkehr Hannover", "network:short": "GVH", "network:wikidata": "Q1549516", "network:wikipedia": "de:Gro\u00dfraum-Verkehr Hannover", "public_transport": "platform", "shelter": "no", "tactile_paving": "no"}}, {"type": "node", "id": 341380122, "lat": 52.3114749, "lon": 9.754392, "tags": {"bench": "yes", "bus": "yes", "highway": "bus_stop", "name": "Wilkenburg", "network": "GVH", "operator": "RegioBus Hannover", "public_transport": "stop_position", "shelter": "yes", "tactile_paving": "yes"}}, {"type": "node", "id": 341380125, "lat": 52.3112509, "lon": 9.7540269, "tags": {"bench": "yes", "bus": "yes", "highway": "bus_stop", "name": "Wilkenburg", "network": "GVH", "operator": "RegioBus Hannover", "public_transport": "stop_position", "shelter": "yes", "tactile_paving": "yes"}}, {"type": "node", "id": 341380613, "lat": 52.4044974, "lon": 9.7810916, "tags": {"bus": "yes", "highway": "bus_stop", "name": "Gorch-Fock-Stra\u00dfe", "network": "Gro\u00dfraum-Verkehr Hannover", "public_transport": "platform", "wheelchair": "limited"}}, {"type": "node", "id": 341380620, "lat": 52.4004986, "lon": 9.7810183, "tags": {"bench": "yes", "bus": "yes", "highway": "bus_stop", "name": "Spannhagengarten", "network": "Gro\u00dfraum-Verkehr Hannover", "public_transport": "platform", "shelter": "yes", "tactile_paving": "no", "wheelchair": "no"}}, {"type": "node", "id": 341380624, "lat": 52.3857007, "lon": 9.7491941, "tags": {"bench": "no", "bin": "yes", "bus": "yes", "highway": "bus_stop", "lit": "no", "name": "Fl\u00fcggestra\u00dfe", "network": "Gro\u00dfraum-Verkehr Hannover", "network:short": "GVH", "network:wikidata": "Q1549516", "network:wikipedia": "de:Gro\u00dfraum-Verkehr Hannover", "passenger_information_display": "no", "public_transport": "platform", "route_ref": "134", "shelter": "no", "tactile_paving": "no"}}, {"type": "node", "id": 341380627, "lat": 52.3854082, "lon": 9.7461558, "tags": {"bench": "no", "bin": "yes", "bus": "yes", "highway": "bus_stop", "lit": "no", "name": "Apostelkirche", "network": "Gro\u00dfraum-Verkehr Hannover", "public_transport": "platform", "route_ref": "134", "shelter": "no", "tactile_paving": "no", "wheelchair": "yes"}}, {"type": "node", "id": 341380631, "lat": 52.3816306, "lon": 9.7372472, "tags": {"bench": "no", "bin": "yes", "bus": "yes", "highway": "bus_stop", "lit": "yes", "name": "Celler Stra\u00dfe", "network": "Gro\u00dfraum-Verkehr Hannover", "passenger_information_display": "no", "public_transport": "platform", "route_ref": "128;134", "shelter": "no", "tactile_paving": "no", "wheelchair": "yes"}}, {"type": "node", "id": 341380633, "lat": 52.4233739, "lon": 9.7813539, "tags": {"bench": "yes", "bin": "yes", "bus": "yes", "highway": "bus_stop", "lit": "yes", "name": "Langenforther Stra\u00dfe", "network": "Gro\u00dfraum-Verkehr Hannover", "public_transport": "platform", "shelter": "yes", "tactile_paving": "no", "wheelchair": "yes"}}, {"type": "node", "id": 341380636, "lat": 52.4197296, "lon": 9.7814903, "tags": {"bench": "yes", "bin": "yes", "bus": "yes", "highway": "bus_stop", "lit": "yes", "name": "Kiefernpfad", "network": "Gro\u00dfraum-Verkehr Hannover", "public_transport": "platform", "shelter": "yes", "tactile_paving": "no", "wheelchair": "yes"}}, {"type": "node", "id": 345019780, "lat": 52.3860186, "lon": 9.8323815, "tags": {"bench": "no", "bin": "yes", "bus": "yes", "highway": "bus_stop", "lit": "yes", "name": "Hannoversche Stra\u00dfe", "network": "Gro\u00dfraum-Verkehr Hannover", "operator": "\u00dcSTRA Hannoversche Verkehrsbetriebe AG", "public_transport": "platform", "route_ref": "124;125;127", "shelter": "no", "tactile_paving": "no", "wheelchair": "yes"}}, {"type": "node", "id": 345279608, "lat": 52.3859599, "lon": 9.8317044, "tags": {"bench": "yes", "bus": "yes", "highway": "bus_stop", "name": "Hannoversche Stra\u00dfe", "network": "Gro\u00dfraum-Verkehr Hannover", "operator": "\u00dcSTRA Hannoversche Verkehrsbetriebe AG", "public_transport": "platform", "route_ref": "124;125;127", "shelter": "no", "wheelchair": "yes"}}, {"type": "node", "id": 345279626, "lat": 52.3848814, "lon": 9.8281887, "tags": {"bench": "no", "bin": "yes", "bus": "yes", "highway": "bus_stop", "lit": "yes", "name": "Grenzstra\u00dfe", "network": "Gro\u00dfraum-Verkehr Hannover", "operator": "\u00dcSTRA Hannoversche Verkehrsbetriebe AG", "passenger_information_display": "no", "public_transport": "platform", "ref:IFOPT": "de:03241:3271:0:3271", "route_ref": "124;125;127", "shelter": "no", "tactile_paving": "no", "wheelchair": "yes"}}, {"type": "node", "id": 345279627, "lat": 52.3848686, "lon": 9.8284945, "tags": {"bench": "yes", "bin": "yes", "bus": "yes", "highway": "bus_stop", "lit": "yes", "name": "Grenzstra\u00dfe", "network": "Gro\u00dfraum-Verkehr Hannover", "operator": "\u00dcSTRA Hannoversche Verkehrsbetriebe AG", "passenger_information_display": "no", "public_transport": "platform", "ref:IFOPT": "de:03241:3271:0:3272", "route_ref": "124;125;127", "shelter": "yes", "tactile_paving": "no", "wheelchair": "yes"}}, {"type": "node", "id": 345279629, "lat": 52.3837213, "lon": 9.8238834, "tags": {"bench": "yes", "bin": "yes", "bus": "yes", "highway": "bus_stop", "lit": "no", "name": "An der Breiten Wiese", "network": "Gro\u00dfraum-Verkehr Hannover", "operator": "\u00dcSTRA Hannoversche Verkehrsbetriebe AG", "passenger_information_display": "no", "public_transport": "platform", "route_ref": "124;127", "shelter": "yes", "tactile_paving": "no", "wheelchair": "yes"}}, {"type": "node", "id": 345279632, "lat": 52.3833333, "lon": 9.8231959, "tags": {"bench": "yes", "bin": "yes", "bus": "yes", "highway": "bus_stop", "name": "An der Breiten Wiese", "network": "Gro\u00dfraum-Verkehr Hannover", "operator": "\u00dcSTRA Hannoversche Verkehrsbetriebe AG", "passenger_information_display": "no", "public_transport": "platform", "route_ref": "124;127", "shelter": "yes", "tactile_paving": "no", "wheelchair": "yes"}}, {"type": "node", "id": 345279666, "lat": 52.3774143, "lon": 9.8024418, "tags": {"bench": "yes", "bin": "yes", "bus": "yes", "highway": "bus_stop", "lit": "yes", "name": "Heidjerhof", "network": "Gro\u00dfraum-Verkehr Hannover", "operator": "\u00dcSTRA Hannoversche Verkehrsbetriebe AG", "public_transport": "platform", "shelter": "yes", "tactile_paving": "no"}}, {"type": "node", "id": 345279668, "lat": 52.3772992, "lon": 9.8024991, "tags": {"bench": "yes", "bin": "yes", "bus": "yes", "highway": "bus_stop", "lit": "yes", "name": "Heidjerhof", "network": "Gro\u00dfraum-Verkehr Hannover", "operator": "\u00dcSTRA Hannoversche Verkehrsbetriebe AG", "public_transport": "platform", "shelter": "yes", "tactile_paving": "no"}}, {"type": "node", "id": 345279671, "lat": 52.3766645, "lon": 9.7996349, "tags": {"bench": "yes", "bin": "yes", "bus": "yes", "highway": "bus_stop", "lit": "yes", "name": "Lathusenstra\u00dfe", "network": "Gro\u00dfraum-Verkehr Hannover", "operator": "\u00dcSTRA Hannoversche Verkehrsbetriebe AG", "public_transport": "platform", "shelter": "yes", "tactile_paving": "no", "wheelchair": "yes"}}, {"type": "node", "id": 345279672, "lat": 52.3762329, "lon": 9.7986888, "tags": {"bench": "yes", "bin": "yes", "bus": "yes", "departures_board": "timetable", "highway": "bus_stop", "lit": "yes", "name": "Lathusenstra\u00dfe", "network": "Gro\u00dfraum-Verkehr Hannover", "operator": "\u00dcSTRA Hannoversche Verkehrsbetriebe AG", "public_transport": "platform", "shelter": "yes", "tactile_paving": "no", "wheelchair": "yes"}}, {"type": "node", "id": 345289781, "lat": 52.3756008, "lon": 9.7957102, "tags": {"bench": "yes", "bin": "yes", "bus": "yes", "highway": "bus_stop", "lit": "yes", "name": "Schaperplatz", "network": "Gro\u00dfraum-Verkehr Hannover", "operator": "\u00dcSTRA Hannoversche Verkehrsbetriebe AG", "public_transport": "platform", "shelter": "yes", "tactile_paving": "no", "wheelchair": "yes"}}, {"type": "node", "id": 345289790, "lat": 52.3753959, "lon": 9.7953998, "tags": {"bench": "yes", "bin": "yes", "bus": "yes", "departures_board": "timetable", "highway": "bus_stop", "lit": "yes", "name": "Schaperplatz", "network": "Gro\u00dfraum-Verkehr Hannover", "operator": "\u00dcSTRA Hannoversche Verkehrsbetriebe AG", "public_transport": "platform", "shelter": "yes", "tactile_paving": "no", "wheelchair": "yes"}}, {"type": "node", "id": 345289798, "lat": 52.37399, "lon": 9.789846, "tags": {"bench": "yes", "bin": "yes", "bus": "yes", "highway": "bus_stop", "lit": "yes", "name": "Bahnhof Kleefeld", "network": "Gro\u00dfraum-Verkehr Hannover", "network:short": "GVH", "network:wikidata": "Q1549516", "operator": "\u00dcSTRA Hannoversche Verkehrsbetriebe AG", "public_transport": "platform", "shelter": "yes", "tactile_paving": "no", "wheelchair": "yes"}}, {"type": "node", "id": 345289813, "lat": 52.3739295, "lon": 9.7899916, "tags": {"bench": "yes", "bin": "yes", "bus": "yes", "highway": "bus_stop", "lit": "yes", "name": "Bahnhof Kleefeld", "network": "Gro\u00dfraum-Verkehr Hannover", "operator": "\u00dcSTRA Hannoversche Verkehrsbetriebe AG", "public_transport": "platform", "shelter": "yes", "tactile_paving": "no", "wheelchair": "yes"}}, {"type": "node", "id": 345412845, "lat": 52.4072307, "lon": 9.8060883, "tags": {"bench": "yes", "bin": "yes", "bus": "yes", "highway": "bus_stop", "lit": "yes", "name": "Pasteurallee", "network": "Gro\u00dfraum-Verkehr Hannover", "network:short": "GVH", "network:wikidata": "Q1549516", "network:wikipedia": "de:Gro\u00dfraum-Verkehr Hannover", "operator": "\u00dcSTRA Hannoversche Verkehrsbetriebe AG", "public_transport": "platform", "shelter": "yes", "survey:date": "2023-09-02", "tactile_paving": "no", "wheelchair": "yes"}}, {"type": "node", "id": 345412846, "lat": 52.4072552, "lon": 9.8062533, "tags": {"bench": "yes", "bin": "yes", "bus": "yes", "highway": "bus_stop", "lit": "yes", "name": "Pasteurallee", "network": "Gro\u00dfraum-Verkehr Hannover", "network:short": "GVH", "network:wikidata": "Q1549516", "network:wikipedia": "de:Gro\u00dfraum-Verkehr Hannover", "operator": "\u00dcSTRA Hannoversche Verkehrsbetriebe AG", "public_transport": "platform", "shelter": "yes", "tactile_paving": "no", "wheelchair": "yes"}}, {"type": "node", "id": 345412850, "lat": 52.3995948, "lon": 9.8133492, "tags": {"bench": "yes", "bin": "yes", "bus": "yes", "highway": "bus_stop", "lit": "yes", "name": "Fehrsweg", "network": "Gro\u00dfraum-Verkehr Hannover", "network:short": "GVH", "network:wikidata": "Q1549516", "operator": "\u00dcSTRA Hannoversche Verkehrsbetriebe AG", "public_transport": "platform", "shelter": "yes", "tactile_paving": "no", "wheelchair": "yes"}}, {"type": "node", "id": 345412851, "lat": 52.3993563, "lon": 9.8136921, "tags": {"bus": "yes", "highway": "bus_stop", "name": "Fehrsweg", "network": "Gro\u00dfraum-Verkehr Hannover", "network:short": "GVH", "network:wikidata": "Q1549516", "operator": "\u00dcSTRA Hannoversche Verkehrsbetriebe AG", "public_transport": "platform", "shelter": "yes", "wheelchair": "yes"}}, {"type": "node", "id": 345412853, "lat": 52.3964899, "lon": 9.8152925, "tags": {"bus": "yes", "highway": "bus_stop", "name": "Haberhof", "network": "Gro\u00dfraum-Verkehr Hannover", "network:short": "GVH", "network:wikidata": "Q1549516", "operator": "\u00dcSTRA Hannoversche Verkehrsbetriebe AG", "public_transport": "platform", "shelter": "yes", "wheelchair": "yes"}}, {"type": "node", "id": 345412854, "lat": 52.3962892, "lon": 9.8156695, "tags": {"bus": "yes", "highway": "bus_stop", "name": "Haberhof", "network": "Gro\u00dfraum-Verkehr Hannover", "network:short": "GVH", "network:wikidata": "Q1549516", "operator": "\u00dcSTRA Hannoversche Verkehrsbetriebe AG", "public_transport": "platform", "shelter": "yes", "wheelchair": "yes"}}, {"type": "node", "id": 345412856, "lat": 52.3931861, "lon": 9.817725, "tags": {"bus": "yes", "highway": "bus_stop", "name": "Osterfelddamm", "network": "Gro\u00dfraum-Verkehr Hannover", "network:short": "GVH", "network:wikidata": "Q1549516", "operator": "\u00dcSTRA Hannoversche Verkehrsbetriebe AG", "public_transport": "platform", "shelter": "yes", "wheelchair": "yes"}}, {"type": "node", "id": 345412858, "lat": 52.3921865, "lon": 9.8181163, "tags": {"bench": "yes", "bin": "yes", "bus": "yes", "highway": "bus_stop", "lit": "no", "name": "Osterfelddamm", "network": "Gro\u00dfraum-Verkehr Hannover", "network:short": "GVH", "network:wikidata": "Q1549516", "operator": "\u00dcSTRA Hannoversche Verkehrsbetriebe AG", "public_transport": "platform", "shelter": "yes", "tactile_paving": "yes", "wheelchair": "yes"}}, {"type": "node", "id": 345412862, "lat": 52.3884921, "lon": 9.8205618, "tags": {"bench": "yes", "bin": "yes", "bus": "yes", "highway": "bus_stop", "lit": "yes", "name": "Milanstra\u00dfe", "network": "Gro\u00dfraum-Verkehr Hannover", "network:short": "GVH", "network:wikidata": "Q1549516", "operator": "\u00dcSTRA Hannoversche Verkehrsbetriebe AG", "public_transport": "platform", "shelter": "yes", "tactile_paving": "no", "wheelchair": "yes"}}, {"type": "node", "id": 345412864, "lat": 52.3880282, "lon": 9.8210594, "tags": {"bench": "yes", "bin": "yes", "bus": "yes", "highway": "bus_stop", "lit": "yes", "name": "Milanstra\u00dfe", "network": "Gro\u00dfraum-Verkehr Hannover", "network:short": "GVH", "network:wikidata": "Q1549516", "operator": "\u00dcSTRA Hannoversche Verkehrsbetriebe AG", "public_transport": "platform", "shelter": "yes", "tactile_paving": "no", "wheelchair": "yes"}}, {"type": "node", "id": 345412866, "lat": 52.3852593, "lon": 9.8227016, "tags": {"bench": "yes", "bin": "yes", "bus": "yes", "highway": "bus_stop", "lit": "yes", "name": "Baumschulenallee", "network": "Gro\u00dfraum-Verkehr Hannover", "operator": "\u00dcSTRA Hannoversche Verkehrsbetriebe AG", "public_transport": "platform", "shelter": "yes", "tactile_paving": "no", "wheelchair": "yes"}}, {"type": "node", "id": 346384649, "lat": 52.4337367, "lon": 9.7464942, "tags": {"bus": "yes", "departures_board": "yes", "highway": "bus_stop", "name": "Langenhagen/St. Paulus-Kirche", "network": "Gro\u00dfraum-Verkehr Hannover", "network:short": "GVH", "network:wikidata": "Q1549516", "public_transport": "platform", "route_ref": "610;611", "shelter": "no"}}, {"type": "node", "id": 346384651, "lat": 52.4336773, "lon": 9.7469352, "tags": {"bus": "yes", "departures_board": "timetable", "highway": "bus_stop", "name": "Langenhagen/St. Paulus-Kirche", "network": "Gro\u00dfraum-Verkehr Hannover", "network:short": "GVH", "network:wikidata": "Q1549516", "public_transport": "platform", "route_ref": "610;611", "shelter": "no"}}, {"type": "node", "id": 347057054, "lat": 52.4339649, "lon": 9.7486925, "tags": {"bench": "no", "bin": "yes", "bus": "yes", "departures_board": "timetable", "highway": "bus_stop", "lit": "yes", "name": "Langenhagen/St. Paulus-Kirche", "network": "Gro\u00dfraum-Verkehr Hannover", "network:short": "GVH", "network:wikidata": "Q1549516", "public_transport": "platform", "route_ref": "616", "shelter": "no", "tactile_paving": "no"}}, {"type": "node", "id": 347057057, "lat": 52.4340498, "lon": 9.7485316, "tags": {"bench": "no", "bus": "yes", "departures_board": "timetable", "highway": "bus_stop", "name": "Langenhagen/St. Paulus-Kirche", "network": "Gro\u00dfraum-Verkehr Hannover", "network:short": "GVH", "network:wikidata": "Q1549516", "public_transport": "platform", "route_ref": "616", "shelter": "no", "tactile_paving": "no"}}, {"type": "node", "id": 352824384, "lat": 52.3697669, "lon": 9.7428465, "tags": {"bench": "no", "bin": "yes", "bus": "yes", "covered": "no", "highway": "bus_stop", "kerb": "raised", "kerb:approach_aid": "no", "lit": "yes", "name": "Aegidientorplatz", "network": "Gro\u00dfraum-Verkehr Hannover", "operator": "\u00dcstra Hannoversche Verkehrsbetriebe AG", "passenger_information_display": "no", "public_transport": "platform", "ref:IFOPT": "de:03241:101:6:109", "shelter": "no", "tactile_paving": "no", "wheelchair": "yes"}}, {"type": "node", "id": 352825812, "lat": 52.364122, "lon": 9.7395804, "tags": {"bench": "no", "bin": "yes", "bus": "yes", "covered": "no", "highway": "bus_stop", "lit": "no", "name": "Maschsee / Sprengel Museum", "network": "Gro\u00dfraum-Verkehr Hannover", "network:short": "GVH", "network:wikidata": "Q1549516", "network:wikipedia": "de:Gro\u00dfraum-Verkehr Hannover", "operator": "\u00dcstra Hannoversche Verkehrsbetriebe AG", "passenger_information_display": "no", "public_transport": "platform", "ref:IFOPT": "de:03241:921:0:921", "shelter": "no", "tactile_paving": "no", "wheelchair": "yes"}}, {"type": "node", "id": 352826134, "lat": 52.3637624, "lon": 9.7390131, "tags": {"bench": "yes", "bin": "yes", "bus": "yes", "highway": "bus_stop", "lit": "yes", "name": "Maschsee / Sprengel Museum", "network": "Gro\u00dfraum-Verkehr Hannover", "network:short": "GVH", "network:wikidata": "Q1549516", "network:wikipedia": "de:Gro\u00dfraum-Verkehr Hannover", "operator": "\u00dcstra Hannoversche Verkehrsbetriebe AG", "passenger_information_display": "no", "public_transport": "platform", "ref:IFOPT": "de:03241:921:0:922", "shelter": "yes", "tactile_paving": "no", "website": "http://62.154.206.88/mdv_server/AHF/000072f6.pdf", "wheelchair": "yes"}}, {"type": "node", "id": 353399799, "lat": 52.4286127, "lon": 9.821532, "tags": {"bus": "yes", "highway": "bus_stop", "name": "Franz-Steinecke-Weg", "network": "Gro\u00dfraum-Verkehr Hannover", "network:short": "GVH", "network:wikidata": "Q1549516", "network:wikipedia": "de:Gro\u00dfraum-Verkehr Hannover", "public_transport": "stop_position", "wheelchair": "limited"}}, {"type": "node", "id": 353399802, "lat": 52.4285135, "lon": 9.821816, "tags": {"bus": "yes", "highway": "bus_stop", "name": "Franz-Steinecke-Weg", "network": "Gro\u00dfraum-Verkehr Hannover", "public_transport": "stop_position", "wheelchair": "yes"}}, {"type": "node", "id": 355148623, "lat": 52.3582301, "lon": 9.7288726, "tags": {"bench": "yes", "bin": "yes", "bus": "yes", "highway": "bus_stop", "lit": "yes", "name": "Luise-Finke-Weg", "network": "Gro\u00dfraum-Verkehr Hannover", "passenger_information_display": "no", "public_transport": "platform", "ref:IFOPT": "de:03241:891:0:892", "route_ref": "100", "shelter": "yes", "tactile_paving": "no", "wheelchair": "yes"}},